$GPGGA,150632.002,4355.355,N,07926.773,W,1,12,1.0,0.0,M,0.0,M,,*70
$GPGSA,A,3,01,02,03,04,05,06,07,08,09,10,11,12,1.0,1.0,1.0*30
$GPRMC,150632.002,A,4355.355,N,07926.773,W,000.0,070.1,090623,000.0,W*6C
$GPGGA,150633.002,4355.355,N,07926.773,W,1,12,1.0,0.0,M,0.0,M,,*71
$GPGSA,A,3,01,02,03,04,05,06,07,08,09,10,11,12,1.0,1.0,1.0*30
$GPRMC,150633.002,A,4355.355,N,07926.773,W,000.0,070.1,090623,000.0,W*6D
$GPGGA,150634.002,4355.355,N,07926.773,W,1,12,1.0,0.0,M,0.0,M,,*76
$GPGSA,A,3,01,02,03,04,05,06,07,08,09,10,11,12,1.0,1.0,1.0*30
$GPRMC,150634.002,A,4355.355,N,07926.773,W,000.0,070.1,090623,000.0,W*6A
$GPGGA,150635.002,4355.355,N,07926.773,W,1,12,1.0,0.0,M,0.0,M,,*77
$GPGSA,A,3,01,02,03,04,05,06,07,08,09,10,11,12,1.0,1.0,1.0*30
$GPRMC,150635.002,A,4355.355,N,07926.773,W,000.0,070.1,090623,000.0,W*6B
$GPGGA,150636.002,4355.356,N,07926.773,W,1,12,1.0,0.0,M,0.0,M,,*77
$GPGSA,A,3,01,02,03,04,05,06,07,08,09,10,11,12,1.0,1.0,1.0*30
$GPRMC,150636.002,A,4355.356,N,07926.773,W,000.0,070.1,090623,000.0,W*6B
$GPGGA,150637.002,4355.356,N,07926.773,W,1,12,1.0,0.0,M,0.0,M,,*76
$GPGSA,A,3,01,02,03,04,05,06,07,08,09,10,11,12,1.0,1.0,1.0*30
$GPRMC,150637.002,A,4355.356,N,07926.773,W,000.0,070.1,090623,000.0,W*6A
$GPGGA,150638.002,4355.356,N,07926.773,W,1,12,1.0,0.0,M,0.0,M,,*79
$GPGSA,A,3,01,02,03,04,05,06,07,08,09,10,11,12,1.0,1.0,1.0*30
$GPRMC,150638.002,A,4355.356,N,07926.773,W,000.0,070.1,090623,000.0,W*65
$GPGGA,150639.002,4355.356,N,07926.773,W,1,12,1.0,0.0,M,0.0,M,,*78
$GPGSA,A,3,01,02,03,04,05,06,07,08,09,10,11,12,1.0,1.0,1.0*30
$GPRMC,150639.002,A,4355.356,N,07926.773,W,000.0,070.1,090623,000.0,W*64
$GPGGA,150640.002,4355.356,N,07926.773,W,1,12,1.0,0.0,M,0.0,M,,*76
$GPGSA,A,3,01,02,03,04,05,06,07,08,09,10,11,12,1.0,1.0,1.0*30
$GPRMC,150640.002,A,4355.356,N,07926.773,W,000.0,070.1,090623,000.0,W*6A
$GPGGA,150641.002,4355.356,N,07926.773,W,1,12,1.0,0.0,M,0.0,M,,*77
$GPGSA,A,3,01,02,03,04,05,06,07,08,09,10,11,12,1.0,1.0,1.0*30
$GPRMC,150641.002,A,4355.356,N,07926.773,W,000.0,070.1,090623,000.0,W*6B
$GPGGA,150642.002,4355.356,N,07926.773,W,1,12,1.0,0.0,M,0.0,M,,*74
$GPGSA,A,3,01,02,03,04,05,06,07,08,09,10,11,12,1.0,1.0,1.0*30
$GPRMC,150642.002,A,4355.356,N,07926.773,W,000.0,070.1,090623,000.0,W*68
$GPGGA,150643.002,4355.356,N,07926.773,W,1,12,1.0,0.0,M,0.0,M,,*75
$GPGSA,A,3,01,02,03,04,05,06,07,08,09,10,11,12,1.0,1.0,1.0*30
$GPRMC,150643.002,A,4355.356,N,07926.773,W,000.0,070.1,090623,000.0,W*69
$GPGGA,150644.002,4355.356,N,07926.773,W,1,12,1.0,0.0,M,0.0,M,,*72
$GPGSA,A,3,01,02,03,04,05,06,07,08,09,10,11,12,1.0,1.0,1.0*30
$GPRMC,150644.002,A,4355.356,N,07926.773,W,000.0,070.1,090623,000.0,W*6E
$GPGGA,150645.002,4355.356,N,07926.773,W,1,12,1.0,0.0,M,0.0,M,,*73
$GPGSA,A,3,01,02,03,04,05,06,07,08,09,10,11,12,1.0,1.0,1.0*30
$GPRMC,150645.002,A,4355.356,N,07926.773,W,000.0,070.1,090623,000.0,W*6F
$GPGGA,150646.002,4355.356,N,07926.773,W,1,12,1.0,0.0,M,0.0,M,,*70
$GPGSA,A,3,01,02,03,04,05,06,07,08,09,10,11,12,1.0,1.0,1.0*30
$GPRMC,150646.002,A,4355.356,N,07926.773,W,000.0,070.1,090623,000.0,W*6C
$GPGGA,150647.002,4355.356,N,07926.773,W,1,12,1.0,0.0,M,0.0,M,,*71
$GPGSA,A,3,01,02,03,04,05,06,07,08,09,10,11,12,1.0,1.0,1.0*30
$GPRMC,150647.002,A,4355.356,N,07926.773,W,000.0,070.1,090623,000.0,W*6D
$GPGGA,150648.002,4355.356,N,07926.773,W,1,12,1.0,0.0,M,0.0,M,,*7E
$GPGSA,A,3,01,02,03,04,05,06,07,08,09,10,11,12,1.0,1.0,1.0*30
$GPRMC,150648.002,A,4355.356,N,07926.773,W,000.0,070.1,090623,000.0,W*62
$GPGGA,150649.002,4355.356,N,07926.773,W,1,12,1.0,0.0,M,0.0,M,,*7F
$GPGSA,A,3,01,02,03,04,05,06,07,08,09,10,11,12,1.0,1.0,1.0*30
$GPRMC,150649.002,A,4355.356,N,07926.773,W,000.0,070.1,090623,000.0,W*63
$GPGGA,150650.002,4355.356,N,07926.773,W,1,12,1.0,0.0,M,0.0,M,,*77
$GPGSA,A,3,01,02,03,04,05,06,07,08,09,10,11,12,1.0,1.0,1.0*30
$GPRMC,150650.002,A,4355.356,N,07926.773,W,000.0,070.1,090623,000.0,W*6B
$GPGGA,150651.002,4355.356,N,07926.773,W,1,12,1.0,0.0,M,0.0,M,,*76
$GPGSA,A,3,01,02,03,04,05,06,07,08,09,10,11,12,1.0,1.0,1.0*30
$GPRMC,150651.002,A,4355.356,N,07926.773,W,000.0,070.1,090623,000.0,W*6A
$GPGGA,150652.002,4355.356,N,07926.773,W,1,12,1.0,0.0,M,0.0,M,,*75
$GPGSA,A,3,01,02,03,04,05,06,07,08,09,10,11,12,1.0,1.0,1.0*30
$GPRMC,150652.002,A,4355.356,N,07926.773,W,000.0,070.1,090623,000.0,W*69
$GPGGA,150653.002,4355.356,N,07926.773,W,1,12,1.0,0.0,M,0.0,M,,*74
$GPGSA,A,3,01,02,03,04,05,06,07,08,09,10,11,12,1.0,1.0,1.0*30
$GPRMC,150653.002,A,4355.356,N,07926.773,W,000.0,070.1,090623,000.0,W*68
$GPGGA,150654.002,4355.356,N,07926.773,W,1,12,1.0,0.0,M,0.0,M,,*73
$GPGSA,A,3,01,02,03,04,05,06,07,08,09,10,11,12,1.0,1.0,1.0*30
$GPRMC,150654.002,A,4355.356,N,07926.773,W,000.0,070.1,090623,000.0,W*6F
$GPGGA,150655.002,4355.356,N,07926.773,W,1,12,1.0,0.0,M,0.0,M,,*72
$GPGSA,A,3,01,02,03,04,05,06,07,08,09,10,11,12,1.0,1.0,1.0*30
$GPRMC,150655.002,A,4355.356,N,07926.773,W,000.0,070.1,090623,000.0,W*6E
$GPGGA,150656.002,4355.356,N,07926.773,W,1,12,1.0,0.0,M,0.0,M,,*71
$GPGSA,A,3,01,02,03,04,05,06,07,08,09,10,11,12,1.0,1.0,1.0*30
$GPRMC,150656.002,A,4355.356,N,07926.773,W,000.0,070.1,090623,000.0,W*6D
$GPGGA,150657.002,4355.356,N,07926.773,W,1,12,1.0,0.0,M,0.0,M,,*70
$GPGSA,A,3,01,02,03,04,05,06,07,08,09,10,11,12,1.0,1.0,1.0*30
$GPRMC,150657.002,A,4355.356,N,07926.773,W,000.0,070.1,090623,000.0,W*6C
$GPGGA,150658.002,4355.356,N,07926.773,W,1,12,1.0,0.0,M,0.0,M,,*7F
$GPGSA,A,3,01,02,03,04,05,06,07,08,09,10,11,12,1.0,1.0,1.0*30
$GPRMC,150658.002,A,4355.356,N,07926.773,W,000.0,070.1,090623,000.0,W*63
$GPGGA,150659.002,4355.356,N,07926.773,W,1,12,1.0,0.0,M,0.0,M,,*7E
$GPGSA,A,3,01,02,03,04,05,06,07,08,09,10,11,12,1.0,1.0,1.0*30
$GPRMC,150659.002,A,4355.356,N,07926.773,W,000.0,070.1,090623,000.0,W*62
$GPGGA,150700.002,4355.356,N,07926.773,W,1,12,1.0,0.0,M,0.0,M,,*73
$GPGSA,A,3,01,02,03,04,05,06,07,08,09,10,11,12,1.0,1.0,1.0*30
$GPRMC,150700.002,A,4355.356,N,07926.773,W,000.0,070.1,090623,000.0,W*6F
$GPGGA,150701.002,4355.356,N,07926.773,W,1,12,1.0,0.0,M,0.0,M,,*72
$GPGSA,A,3,01,02,03,04,05,06,07,08,09,10,11,12,1.0,1.0,1.0*30
$GPRMC,150701.002,A,4355.356,N,07926.773,W,000.0,070.1,090623,000.0,W*6E
$GPGGA,150702.002,4355.356,N,07926.773,W,1,12,1.0,0.0,M,0.0,M,,*71
$GPGSA,A,3,01,02,03,04,05,06,07,08,09,10,11,12,1.0,1.0,1.0*30
$GPRMC,150702.002,A,4355.356,N,07926.773,W,000.0,070.1,090623,000.0,W*6D
$GPGGA,150703.002,4355.356,N,07926.773,W,1,12,1.0,0.0,M,0.0,M,,*70
$GPGSA,A,3,01,02,03,04,05,06,07,08,09,10,11,12,1.0,1.0,1.0*30
$GPRMC,150703.002,A,4355.356,N,07926.773,W,000.0,070.1,090623,000.0,W*6C
$GPGGA,150704.002,4355.356,N,07926.773,W,1,12,1.0,0.0,M,0.0,M,,*77
$GPGSA,A,3,01,02,03,04,05,06,07,08,09,10,11,12,1.0,1.0,1.0*30
$GPRMC,150704.002,A,4355.356,N,07926.773,W,000.0,070.1,090623,000.0,W*6B
$GPGGA,150705.002,4355.356,N,07926.773,W,1,12,1.0,0.0,M,0.0,M,,*76
$GPGSA,A,3,01,02,03,04,05,06,07,08,09,10,11,12,1.0,1.0,1.0*30
$GPRMC,150705.002,A,4355.356,N,07926.773,W,000.0,070.1,090623,000.0,W*6A
$GPGGA,150706.002,4355.356,N,07926.773,W,1,12,1.0,0.0,M,0.0,M,,*75
$GPGSA,A,3,01,02,03,04,05,06,07,08,09,10,11,12,1.0,1.0,1.0*30
$GPRMC,150706.002,A,4355.356,N,07926.773,W,000.0,070.1,090623,000.0,W*69
$GPGGA,150707.002,4355.356,N,07926.773,W,1,12,1.0,0.0,M,0.0,M,,*74
$GPGSA,A,3,01,02,03,04,05,06,07,08,09,10,11,12,1.0,1.0,1.0*30
$GPRMC,150707.002,A,4355.356,N,07926.773,W,000.0,070.1,090623,000.0,W*68
$GPGGA,150708.002,4355.356,N,07926.773,W,1,12,1.0,0.0,M,0.0,M,,*7B
$GPGSA,A,3,01,02,03,04,05,06,07,08,09,10,11,12,1.0,1.0,1.0*30
$GPRMC,150708.002,A,4355.356,N,07926.773,W,000.0,070.1,090623,000.0,W*67
$GPGGA,150709.002,4355.356,N,07926.773,W,1,12,1.0,0.0,M,0.0,M,,*7A
$GPGSA,A,3,01,02,03,04,05,06,07,08,09,10,11,12,1.0,1.0,1.0*30
$GPRMC,150709.002,A,4355.356,N,07926.773,W,000.0,070.1,090623,000.0,W*66
$GPGGA,150710.002,4355.356,N,07926.773,W,1,12,1.0,0.0,M,0.0,M,,*72
$GPGSA,A,3,01,02,03,04,05,06,07,08,09,10,11,12,1.0,1.0,1.0*30
$GPRMC,150710.002,A,4355.356,N,07926.773,W,000.0,070.1,090623,000.0,W*6E
$GPGGA,150711.002,4355.356,N,07926.773,W,1,12,1.0,0.0,M,0.0,M,,*73
$GPGSA,A,3,01,02,03,04,05,06,07,08,09,10,11,12,1.0,1.0,1.0*30
$GPRMC,150711.002,A,4355.356,N,07926.773,W,000.0,070.1,090623,000.0,W*6F
$GPGGA,150712.002,4355.356,N,07926.773,W,1,12,1.0,0.0,M,0.0,M,,*70
$GPGSA,A,3,01,02,03,04,05,06,07,08,09,10,11,12,1.0,1.0,1.0*30
$GPRMC,150712.002,A,4355.356,N,07926.773,W,000.0,070.1,090623,000.0,W*6C
$GPGGA,150713.002,4355.356,N,07926.773,W,1,12,1.0,0.0,M,0.0,M,,*71
$GPGSA,A,3,01,02,03,04,05,06,07,08,09,10,11,12,1.0,1.0,1.0*30
$GPRMC,150713.002,A,4355.356,N,07926.773,W,000.0,070.1,090623,000.0,W*6D
$GPGGA,150714.002,4355.356,N,07926.773,W,1,12,1.0,0.0,M,0.0,M,,*76
$GPGSA,A,3,01,02,03,04,05,06,07,08,09,10,11,12,1.0,1.0,1.0*30
$GPRMC,150714.002,A,4355.356,N,07926.773,W,000.0,070.1,090623,000.0,W*6A
$GPGGA,150715.002,4355.356,N,07926.773,W,1,12,1.0,0.0,M,0.0,M,,*77
$GPGSA,A,3,01,02,03,04,05,06,07,08,09,10,11,12,1.0,1.0,1.0*30
$GPRMC,150715.002,A,4355.356,N,07926.773,W,000.0,070.1,090623,000.0,W*6B
$GPGGA,150716.002,4355.356,N,07926.773,W,1,12,1.0,0.0,M,0.0,M,,*74
$GPGSA,A,3,01,02,03,04,05,06,07,08,09,10,11,12,1.0,1.0,1.0*30
$GPRMC,150716.002,A,4355.356,N,07926.773,W,000.0,070.1,090623,000.0,W*68
$GPGGA,150717.002,4355.356,N,07926.773,W,1,12,1.0,0.0,M,0.0,M,,*75
$GPGSA,A,3,01,02,03,04,05,06,07,08,09,10,11,12,1.0,1.0,1.0*30
$GPRMC,150717.002,A,4355.356,N,07926.773,W,000.0,070.1,090623,000.0,W*69
$GPGGA,150718.002,4355.356,N,07926.773,W,1,12,1.0,0.0,M,0.0,M,,*7A
$GPGSA,A,3,01,02,03,04,05,06,07,08,09,10,11,12,1.0,1.0,1.0*30
$GPRMC,150718.002,A,4355.356,N,07926.773,W,000.0,070.1,090623,000.0,W*66
$GPGGA,150719.002,4355.356,N,07926.773,W,1,12,1.0,0.0,M,0.0,M,,*7B
$GPGSA,A,3,01,02,03,04,05,06,07,08,09,10,11,12,1.0,1.0,1.0*30
$GPRMC,150719.002,A,4355.356,N,07926.773,W,000.0,070.1,090623,000.0,W*67
$GPGGA,150720.002,4355.356,N,07926.773,W,1,12,1.0,0.0,M,0.0,M,,*71
$GPGSA,A,3,01,02,03,04,05,06,07,08,09,10,11,12,1.0,1.0,1.0*30
$GPRMC,150720.002,A,4355.356,N,07926.773,W,000.0,070.1,090623,000.0,W*6D
$GPGGA,150721.002,4355.356,N,07926.773,W,1,12,1.0,0.0,M,0.0,M,,*70
$GPGSA,A,3,01,02,03,04,05,06,07,08,09,10,11,12,1.0,1.0,1.0*30
$GPRMC,150721.002,A,4355.356,N,07926.773,W,000.0,070.1,090623,000.0,W*6C
$GPGGA,150722.002,4355.356,N,07926.773,W,1,12,1.0,0.0,M,0.0,M,,*73
$GPGSA,A,3,01,02,03,04,05,06,07,08,09,10,11,12,1.0,1.0,1.0*30
$GPRMC,150722.002,A,4355.356,N,07926.773,W,000.0,070.1,090623,000.0,W*6F
$GPGGA,150723.002,4355.356,N,07926.773,W,1,12,1.0,0.0,M,0.0,M,,*72
$GPGSA,A,3,01,02,03,04,05,06,07,08,09,10,11,12,1.0,1.0,1.0*30
$GPRMC,150723.002,A,4355.356,N,07926.773,W,000.0,070.1,090623,000.0,W*6E
$GPGGA,150724.002,4355.356,N,07926.773,W,1,12,1.0,0.0,M,0.0,M,,*75
$GPGSA,A,3,01,02,03,04,05,06,07,08,09,10,11,12,1.0,1.0,1.0*30
$GPRMC,150724.002,A,4355.356,N,07926.773,W,000.0,070.1,090623,000.0,W*69
$GPGGA,150725.002,4355.356,N,07926.773,W,1,12,1.0,0.0,M,0.0,M,,*74
$GPGSA,A,3,01,02,03,04,05,06,07,08,09,10,11,12,1.0,1.0,1.0*30
$GPRMC,150725.002,A,4355.356,N,07926.773,W,000.0,070.1,090623,000.0,W*68
$GPGGA,150726.002,4355.356,N,07926.773,W,1,12,1.0,0.0,M,0.0,M,,*77
$GPGSA,A,3,01,02,03,04,05,06,07,08,09,10,11,12,1.0,1.0,1.0*30
$GPRMC,150726.002,A,4355.356,N,07926.773,W,000.0,070.1,090623,000.0,W*6B
$GPGGA,150727.002,4355.356,N,07926.773,W,1,12,1.0,0.0,M,0.0,M,,*76
$GPGSA,A,3,01,02,03,04,05,06,07,08,09,10,11,12,1.0,1.0,1.0*30
$GPRMC,150727.002,A,4355.356,N,07926.773,W,000.0,070.1,090623,000.0,W*6A
$GPGGA,150728.002,4355.356,N,07926.773,W,1,12,1.0,0.0,M,0.0,M,,*79
$GPGSA,A,3,01,02,03,04,05,06,07,08,09,10,11,12,1.0,1.0,1.0*30
$GPRMC,150728.002,A,4355.356,N,07926.773,W,000.0,070.1,090623,000.0,W*65
$GPGGA,150729.002,4355.356,N,07926.773,W,1,12,1.0,0.0,M,0.0,M,,*78
$GPGSA,A,3,01,02,03,04,05,06,07,08,09,10,11,12,1.0,1.0,1.0*30
$GPRMC,150729.002,A,4355.356,N,07926.773,W,000.0,070.1,090623,000.0,W*64
$GPGGA,150730.002,4355.356,N,07926.773,W,1,12,1.0,0.0,M,0.0,M,,*70
$GPGSA,A,3,01,02,03,04,05,06,07,08,09,10,11,12,1.0,1.0,1.0*30
$GPRMC,150730.002,A,4355.356,N,07926.773,W,000.0,070.1,090623,000.0,W*6C
$GPGGA,150731.002,4355.356,N,07926.773,W,1,12,1.0,0.0,M,0.0,M,,*71
$GPGSA,A,3,01,02,03,04,05,06,07,08,09,10,11,12,1.0,1.0,1.0*30
$GPRMC,150731.002,A,4355.356,N,07926.773,W,000.0,070.1,090623,000.0,W*6D
$GPGGA,150732.002,4355.356,N,07926.773,W,1,12,1.0,0.0,M,0.0,M,,*72
$GPGSA,A,3,01,02,03,04,05,06,07,08,09,10,11,12,1.0,1.0,1.0*30
$GPRMC,150732.002,A,4355.356,N,07926.773,W,000.0,070.1,090623,000.0,W*6E
$GPGGA,150733.002,4355.356,N,07926.773,W,1,12,1.0,0.0,M,0.0,M,,*73
$GPGSA,A,3,01,02,03,04,05,06,07,08,09,10,11,12,1.0,1.0,1.0*30
$GPRMC,150733.002,A,4355.356,N,07926.773,W,000.0,070.1,090623,000.0,W*6F
$GPGGA,150734.002,4355.356,N,07926.773,W,1,12,1.0,0.0,M,0.0,M,,*74
$GPGSA,A,3,01,02,03,04,05,06,07,08,09,10,11,12,1.0,1.0,1.0*30
$GPRMC,150734.002,A,4355.356,N,07926.773,W,000.0,070.1,090623,000.0,W*68
$GPGGA,150735.002,4355.356,N,07926.773,W,1,12,1.0,0.0,M,0.0,M,,*75
$GPGSA,A,3,01,02,03,04,05,06,07,08,09,10,11,12,1.0,1.0,1.0*30
$GPRMC,150735.002,A,4355.356,N,07926.773,W,000.0,070.1,090623,000.0,W*69
$GPGGA,150736.002,4355.356,N,07926.773,W,1,12,1.0,0.0,M,0.0,M,,*76
$GPGSA,A,3,01,02,03,04,05,06,07,08,09,10,11,12,1.0,1.0,1.0*30
$GPRMC,150736.002,A,4355.356,N,07926.773,W,000.0,070.1,090623,000.0,W*6A
$GPGGA,150737.002,4355.356,N,07926.773,W,1,12,1.0,0.0,M,0.0,M,,*77
$GPGSA,A,3,01,02,03,04,05,06,07,08,09,10,11,12,1.0,1.0,1.0*30
$GPRMC,150737.002,A,4355.356,N,07926.773,W,000.0,070.1,090623,000.0,W*6B
$GPGGA,150738.002,4355.356,N,07926.773,W,1,12,1.0,0.0,M,0.0,M,,*78
$GPGSA,A,3,01,02,03,04,05,06,07,08,09,10,11,12,1.0,1.0,1.0*30
$GPRMC,150738.002,A,4355.356,N,07926.773,W,000.0,070.1,090623,000.0,W*64
$GPGGA,150739.002,4355.356,N,07926.773,W,1,12,1.0,0.0,M,0.0,M,,*79
$GPGSA,A,3,01,02,03,04,05,06,07,08,09,10,11,12,1.0,1.0,1.0*30
$GPRMC,150739.002,A,4355.356,N,07926.773,W,000.0,070.1,090623,000.0,W*65
$GPGGA,150740.002,4355.356,N,07926.773,W,1,12,1.0,0.0,M,0.0,M,,*77
$GPGSA,A,3,01,02,03,04,05,06,07,08,09,10,11,12,1.0,1.0,1.0*30
$GPRMC,150740.002,A,4355.356,N,07926.773,W,000.0,070.1,090623,000.0,W*6B
$GPGGA,150741.002,4355.356,N,07926.773,W,1,12,1.0,0.0,M,0.0,M,,*76
$GPGSA,A,3,01,02,03,04,05,06,07,08,09,10,11,12,1.0,1.0,1.0*30
$GPRMC,150741.002,A,4355.356,N,07926.773,W,000.0,070.1,090623,000.0,W*6A
$GPGGA,150742.002,4355.356,N,07926.773,W,1,12,1.0,0.0,M,0.0,M,,*75
$GPGSA,A,3,01,02,03,04,05,06,07,08,09,10,11,12,1.0,1.0,1.0*30
$GPRMC,150742.002,A,4355.356,N,07926.773,W,000.0,070.1,090623,000.0,W*69
$GPGGA,150743.002,4355.356,N,07926.773,W,1,12,1.0,0.0,M,0.0,M,,*74
$GPGSA,A,3,01,02,03,04,05,06,07,08,09,10,11,12,1.0,1.0,1.0*30
$GPRMC,150743.002,A,4355.356,N,07926.773,W,000.0,070.1,090623,000.0,W*68
$GPGGA,150744.002,4355.356,N,07926.773,W,1,12,1.0,0.0,M,0.0,M,,*73
$GPGSA,A,3,01,02,03,04,05,06,07,08,09,10,11,12,1.0,1.0,1.0*30
$GPRMC,150744.002,A,4355.356,N,07926.773,W,000.0,070.1,090623,000.0,W*6F
$GPGGA,150745.002,4355.356,N,07926.773,W,1,12,1.0,0.0,M,0.0,M,,*72
$GPGSA,A,3,01,02,03,04,05,06,07,08,09,10,11,12,1.0,1.0,1.0*30
$GPRMC,150745.002,A,4355.356,N,07926.773,W,000.0,070.1,090623,000.0,W*6E
$GPGGA,150746.002,4355.356,N,07926.773,W,1,12,1.0,0.0,M,0.0,M,,*71
$GPGSA,A,3,01,02,03,04,05,06,07,08,09,10,11,12,1.0,1.0,1.0*30
$GPRMC,150746.002,A,4355.356,N,07926.773,W,000.0,070.1,090623,000.0,W*6D
$GPGGA,150747.002,4355.356,N,07926.773,W,1,12,1.0,0.0,M,0.0,M,,*70
$GPGSA,A,3,01,02,03,04,05,06,07,08,09,10,11,12,1.0,1.0,1.0*30
$GPRMC,150747.002,A,4355.356,N,07926.773,W,000.0,070.1,090623,000.0,W*6C
$GPGGA,150748.002,4355.356,N,07926.773,W,1,12,1.0,0.0,M,0.0,M,,*7F
$GPGSA,A,3,01,02,03,04,05,06,07,08,09,10,11,12,1.0,1.0,1.0*30
$GPRMC,150748.002,A,4355.356,N,07926.773,W,000.0,070.1,090623,000.0,W*63
$GPGGA,150749.002,4355.356,N,07926.773,W,1,12,1.0,0.0,M,0.0,M,,*7E
$GPGSA,A,3,01,02,03,04,05,06,07,08,09,10,11,12,1.0,1.0,1.0*30
$GPRMC,150749.002,A,4355.356,N,07926.773,W,000.0,070.1,090623,000.0,W*62
$GPGGA,150750.002,4355.356,N,07926.773,W,1,12,1.0,0.0,M,0.0,M,,*76
$GPGSA,A,3,01,02,03,04,05,06,07,08,09,10,11,12,1.0,1.0,1.0*30
$GPRMC,150750.002,A,4355.356,N,07926.773,W,000.0,070.1,090623,000.0,W*6A
$GPGGA,150751.002,4355.356,N,07926.773,W,1,12,1.0,0.0,M,0.0,M,,*77
$GPGSA,A,3,01,02,03,04,05,06,07,08,09,10,11,12,1.0,1.0,1.0*30
$GPRMC,150751.002,A,4355.356,N,07926.773,W,000.0,070.1,090623,000.0,W*6B
$GPGGA,150752.002,4355.356,N,07926.773,W,1,12,1.0,0.0,M,0.0,M,,*74
$GPGSA,A,3,01,02,03,04,05,06,07,08,09,10,11,12,1.0,1.0,1.0*30
$GPRMC,150752.002,A,4355.356,N,07926.773,W,000.0,070.1,090623,000.0,W*68
$GPGGA,150753.002,4355.356,N,07926.773,W,1,12,1.0,0.0,M,0.0,M,,*75
$GPGSA,A,3,01,02,03,04,05,06,07,08,09,10,11,12,1.0,1.0,1.0*30
$GPRMC,150753.002,A,4355.356,N,07926.773,W,000.0,070.1,090623,000.0,W*69
$GPGGA,150754.002,4355.356,N,07926.773,W,1,12,1.0,0.0,M,0.0,M,,*72
$GPGSA,A,3,01,02,03,04,05,06,07,08,09,10,11,12,1.0,1.0,1.0*30
$GPRMC,150754.002,A,4355.356,N,07926.773,W,000.0,070.1,090623,000.0,W*6E
$GPGGA,150755.002,4355.356,N,07926.773,W,1,12,1.0,0.0,M,0.0,M,,*73
$GPGSA,A,3,01,02,03,04,05,06,07,08,09,10,11,12,1.0,1.0,1.0*30
$GPRMC,150755.002,A,4355.356,N,07926.773,W,000.0,070.1,090623,000.0,W*6F
$GPGGA,150756.002,4355.356,N,07926.773,W,1,12,1.0,0.0,M,0.0,M,,*70
$GPGSA,A,3,01,02,03,04,05,06,07,08,09,10,11,12,1.0,1.0,1.0*30
$GPRMC,150756.002,A,4355.356,N,07926.773,W,000.0,070.1,090623,000.0,W*6C
$GPGGA,150757.002,4355.356,N,07926.773,W,1,12,1.0,0.0,M,0.0,M,,*71
$GPGSA,A,3,01,02,03,04,05,06,07,08,09,10,11,12,1.0,1.0,1.0*30
$GPRMC,150757.002,A,4355.356,N,07926.773,W,000.0,070.1,090623,000.0,W*6D
$GPGGA,150758.002,4355.356,N,07926.773,W,1,12,1.0,0.0,M,0.0,M,,*7E
$GPGSA,A,3,01,02,03,04,05,06,07,08,09,10,11,12,1.0,1.0,1.0*30
$GPRMC,150758.002,A,4355.356,N,07926.773,W,000.0,070.1,090623,000.0,W*62
$GPGGA,150759.002,4355.356,N,07926.773,W,1,12,1.0,0.0,M,0.0,M,,*7F
$GPGSA,A,3,01,02,03,04,05,06,07,08,09,10,11,12,1.0,1.0,1.0*30
$GPRMC,150759.002,A,4355.356,N,07926.773,W,000.0,070.1,090623,000.0,W*63
$GPGGA,150800.002,4355.356,N,07926.773,W,1,12,1.0,0.0,M,0.0,M,,*7C
$GPGSA,A,3,01,02,03,04,05,06,07,08,09,10,11,12,1.0,1.0,1.0*30
$GPRMC,150800.002,A,4355.356,N,07926.773,W,000.0,070.1,090623,000.0,W*60
$GPGGA,150801.002,4355.356,N,07926.773,W,1,12,1.0,0.0,M,0.0,M,,*7D
$GPGSA,A,3,01,02,03,04,05,06,07,08,09,10,11,12,1.0,1.0,1.0*30
$GPRMC,150801.002,A,4355.356,N,07926.773,W,000.0,070.1,090623,000.0,W*61
$GPGGA,150802.002,4355.356,N,07926.773,W,1,12,1.0,0.0,M,0.0,M,,*7E
$GPGSA,A,3,01,02,03,04,05,06,07,08,09,10,11,12,1.0,1.0,1.0*30
$GPRMC,150802.002,A,4355.356,N,07926.773,W,000.0,070.1,090623,000.0,W*62
$GPGGA,150803.002,4355.356,N,07926.773,W,1,12,1.0,0.0,M,0.0,M,,*7F
$GPGSA,A,3,01,02,03,04,05,06,07,08,09,10,11,12,1.0,1.0,1.0*30
$GPRMC,150803.002,A,4355.356,N,07926.773,W,000.0,070.1,090623,000.0,W*63
$GPGGA,150804.002,4355.356,N,07926.773,W,1,12,1.0,0.0,M,0.0,M,,*78
$GPGSA,A,3,01,02,03,04,05,06,07,08,09,10,11,12,1.0,1.0,1.0*30
$GPRMC,150804.002,A,4355.356,N,07926.773,W,000.0,070.1,090623,000.0,W*64
$GPGGA,150805.002,4355.356,N,07926.773,W,1,12,1.0,0.0,M,0.0,M,,*79
$GPGSA,A,3,01,02,03,04,05,06,07,08,09,10,11,12,1.0,1.0,1.0*30
$GPRMC,150805.002,A,4355.356,N,07926.773,W,000.0,070.1,090623,000.0,W*65
$GPGGA,150806.002,4355.356,N,07926.773,W,1,12,1.0,0.0,M,0.0,M,,*7A
$GPGSA,A,3,01,02,03,04,05,06,07,08,09,10,11,12,1.0,1.0,1.0*30
$GPRMC,150806.002,A,4355.356,N,07926.773,W,000.0,070.1,090623,000.0,W*66
$GPGGA,150807.002,4355.356,N,07926.773,W,1,12,1.0,0.0,M,0.0,M,,*7B
$GPGSA,A,3,01,02,03,04,05,06,07,08,09,10,11,12,1.0,1.0,1.0*30
$GPRMC,150807.002,A,4355.356,N,07926.773,W,000.0,070.1,090623,000.0,W*67
$GPGGA,150808.002,4355.356,N,07926.773,W,1,12,1.0,0.0,M,0.0,M,,*74
$GPGSA,A,3,01,02,03,04,05,06,07,08,09,10,11,12,1.0,1.0,1.0*30
$GPRMC,150808.002,A,4355.356,N,07926.773,W,000.0,070.1,090623,000.0,W*68
$GPGGA,150809.002,4355.356,N,07926.773,W,1,12,1.0,0.0,M,0.0,M,,*75
$GPGSA,A,3,01,02,03,04,05,06,07,08,09,10,11,12,1.0,1.0,1.0*30
$GPRMC,150809.002,A,4355.356,N,07926.773,W,000.0,070.1,090623,000.0,W*69
$GPGGA,150810.002,4355.356,N,07926.773,W,1,12,1.0,0.0,M,0.0,M,,*7D
$GPGSA,A,3,01,02,03,04,05,06,07,08,09,10,11,12,1.0,1.0,1.0*30
$GPRMC,150810.002,A,4355.356,N,07926.773,W,000.0,070.1,090623,000.0,W*61
$GPGGA,150811.002,4355.356,N,07926.773,W,1,12,1.0,0.0,M,0.0,M,,*7C
$GPGSA,A,3,01,02,03,04,05,06,07,08,09,10,11,12,1.0,1.0,1.0*30
$GPRMC,150811.002,A,4355.356,N,07926.773,W,000.0,070.1,090623,000.0,W*60
$GPGGA,150812.002,4355.356,N,07926.773,W,1,12,1.0,0.0,M,0.0,M,,*7F
$GPGSA,A,3,01,02,03,04,05,06,07,08,09,10,11,12,1.0,1.0,1.0*30
$GPRMC,150812.002,A,4355.356,N,07926.773,W,000.0,070.1,090623,000.0,W*63
$GPGGA,150813.002,4355.356,N,07926.773,W,1,12,1.0,0.0,M,0.0,M,,*7E
$GPGSA,A,3,01,02,03,04,05,06,07,08,09,10,11,12,1.0,1.0,1.0*30
$GPRMC,150813.002,A,4355.356,N,07926.773,W,000.0,070.1,090623,000.0,W*62
$GPGGA,150814.002,4355.356,N,07926.773,W,1,12,1.0,0.0,M,0.0,M,,*79
$GPGSA,A,3,01,02,03,04,05,06,07,08,09,10,11,12,1.0,1.0,1.0*30
$GPRMC,150814.002,A,4355.356,N,07926.773,W,000.0,070.1,090623,000.0,W*65
$GPGGA,150815.002,4355.356,N,07926.773,W,1,12,1.0,0.0,M,0.0,M,,*78
$GPGSA,A,3,01,02,03,04,05,06,07,08,09,10,11,12,1.0,1.0,1.0*30
$GPRMC,150815.002,A,4355.356,N,07926.773,W,000.0,070.1,090623,000.0,W*64
$GPGGA,150816.002,4355.356,N,07926.773,W,1,12,1.0,0.0,M,0.0,M,,*7B
$GPGSA,A,3,01,02,03,04,05,06,07,08,09,10,11,12,1.0,1.0,1.0*30
$GPRMC,150816.002,A,4355.356,N,07926.773,W,000.0,070.1,090623,000.0,W*67
$GPGGA,150817.002,4355.356,N,07926.773,W,1,12,1.0,0.0,M,0.0,M,,*7A
$GPGSA,A,3,01,02,03,04,05,06,07,08,09,10,11,12,1.0,1.0,1.0*30
$GPRMC,150817.002,A,4355.356,N,07926.773,W,000.0,070.1,090623,000.0,W*66
$GPGGA,150818.002,4355.356,N,07926.773,W,1,12,1.0,0.0,M,0.0,M,,*75
$GPGSA,A,3,01,02,03,04,05,06,07,08,09,10,11,12,1.0,1.0,1.0*30
$GPRMC,150818.002,A,4355.356,N,07926.773,W,000.0,070.1,090623,000.0,W*69
$GPGGA,150819.002,4355.356,N,07926.773,W,1,12,1.0,0.0,M,0.0,M,,*74
$GPGSA,A,3,01,02,03,04,05,06,07,08,09,10,11,12,1.0,1.0,1.0*30
$GPRMC,150819.002,A,4355.356,N,07926.773,W,000.0,070.1,090623,000.0,W*68
$GPGGA,150820.002,4355.356,N,07926.773,W,1,12,1.0,0.0,M,0.0,M,,*7E
$GPGSA,A,3,01,02,03,04,05,06,07,08,09,10,11,12,1.0,1.0,1.0*30
$GPRMC,150820.002,A,4355.356,N,07926.773,W,000.0,070.1,090623,000.0,W*62
$GPGGA,150821.002,4355.356,N,07926.773,W,1,12,1.0,0.0,M,0.0,M,,*7F
$GPGSA,A,3,01,02,03,04,05,06,07,08,09,10,11,12,1.0,1.0,1.0*30
$GPRMC,150821.002,A,4355.356,N,07926.773,W,000.0,070.1,090623,000.0,W*63
$GPGGA,150822.002,4355.356,N,07926.773,W,1,12,1.0,0.0,M,0.0,M,,*7C
$GPGSA,A,3,01,02,03,04,05,06,07,08,09,10,11,12,1.0,1.0,1.0*30
$GPRMC,150822.002,A,4355.356,N,07926.773,W,000.0,070.1,090623,000.0,W*60
$GPGGA,150823.002,4355.356,N,07926.773,W,1,12,1.0,0.0,M,0.0,M,,*7D
$GPGSA,A,3,01,02,03,04,05,06,07,08,09,10,11,12,1.0,1.0,1.0*30
$GPRMC,150823.002,A,4355.356,N,07926.773,W,000.0,070.1,090623,000.0,W*61
$GPGGA,150824.002,4355.356,N,07926.773,W,1,12,1.0,0.0,M,0.0,M,,*7A
$GPGSA,A,3,01,02,03,04,05,06,07,08,09,10,11,12,1.0,1.0,1.0*30
$GPRMC,150824.002,A,4355.356,N,07926.773,W,000.0,070.1,090623,000.0,W*66
$GPGGA,150825.002,4355.356,N,07926.773,W,1,12,1.0,0.0,M,0.0,M,,*7B
$GPGSA,A,3,01,02,03,04,05,06,07,08,09,10,11,12,1.0,1.0,1.0*30
$GPRMC,150825.002,A,4355.356,N,07926.773,W,000.0,070.1,090623,000.0,W*67
$GPGGA,150826.002,4355.356,N,07926.772,W,1,12,1.0,0.0,M,0.0,M,,*79
$GPGSA,A,3,01,02,03,04,05,06,07,08,09,10,11,12,1.0,1.0,1.0*30
$GPRMC,150826.002,A,4355.356,N,07926.772,W,000.0,070.1,090623,000.0,W*65
$GPGGA,150827.002,4355.356,N,07926.772,W,1,12,1.0,0.0,M,0.0,M,,*78
$GPGSA,A,3,01,02,03,04,05,06,07,08,09,10,11,12,1.0,1.0,1.0*30
$GPRMC,150827.002,A,4355.356,N,07926.772,W,000.0,070.1,090623,000.0,W*64
$GPGGA,150828.002,4355.356,N,07926.772,W,1,12,1.0,0.0,M,0.0,M,,*77
$GPGSA,A,3,01,02,03,04,05,06,07,08,09,10,11,12,1.0,1.0,1.0*30
$GPRMC,150828.002,A,4355.356,N,07926.772,W,000.0,070.1,090623,000.0,W*6B
$GPGGA,150829.002,4355.356,N,07926.772,W,1,12,1.0,0.0,M,0.0,M,,*76
$GPGSA,A,3,01,02,03,04,05,06,07,08,09,10,11,12,1.0,1.0,1.0*30
$GPRMC,150829.002,A,4355.356,N,07926.772,W,000.0,070.1,090623,000.0,W*6A
$GPGGA,150830.002,4355.356,N,07926.772,W,1,12,1.0,0.0,M,0.0,M,,*7E
$GPGSA,A,3,01,02,03,04,05,06,07,08,09,10,11,12,1.0,1.0,1.0*30
$GPRMC,150830.002,A,4355.356,N,07926.772,W,000.0,070.1,090623,000.0,W*62
$GPGGA,150831.002,4355.356,N,07926.772,W,1,12,1.0,0.0,M,0.0,M,,*7F
$GPGSA,A,3,01,02,03,04,05,06,07,08,09,10,11,12,1.0,1.0,1.0*30
$GPRMC,150831.002,A,4355.356,N,07926.772,W,000.0,070.1,090623,000.0,W*63
$GPGGA,150832.002,4355.356,N,07926.772,W,1,12,1.0,0.0,M,0.0,M,,*7C
$GPGSA,A,3,01,02,03,04,05,06,07,08,09,10,11,12,1.0,1.0,1.0*30
$GPRMC,150832.002,A,4355.356,N,07926.772,W,000.0,070.1,090623,000.0,W*60
$GPGGA,150833.002,4355.356,N,07926.772,W,1,12,1.0,0.0,M,0.0,M,,*7D
$GPGSA,A,3,01,02,03,04,05,06,07,08,09,10,11,12,1.0,1.0,1.0*30
$GPRMC,150833.002,A,4355.356,N,07926.772,W,000.0,070.1,090623,000.0,W*61
$GPGGA,150834.002,4355.356,N,07926.772,W,1,12,1.0,0.0,M,0.0,M,,*7A
$GPGSA,A,3,01,02,03,04,05,06,07,08,09,10,11,12,1.0,1.0,1.0*30
$GPRMC,150834.002,A,4355.356,N,07926.772,W,000.0,070.1,090623,000.0,W*66
$GPGGA,150835.002,4355.356,N,07926.772,W,1,12,1.0,0.0,M,0.0,M,,*7B
$GPGSA,A,3,01,02,03,04,05,06,07,08,09,10,11,12,1.0,1.0,1.0*30
$GPRMC,150835.002,A,4355.356,N,07926.772,W,000.0,070.1,090623,000.0,W*67
$GPGGA,150836.002,4355.356,N,07926.772,W,1,12,1.0,0.0,M,0.0,M,,*78
$GPGSA,A,3,01,02,03,04,05,06,07,08,09,10,11,12,1.0,1.0,1.0*30
$GPRMC,150836.002,A,4355.356,N,07926.772,W,000.0,070.1,090623,000.0,W*64
$GPGGA,150837.002,4355.356,N,07926.772,W,1,12,1.0,0.0,M,0.0,M,,*79
$GPGSA,A,3,01,02,03,04,05,06,07,08,09,10,11,12,1.0,1.0,1.0*30
$GPRMC,150837.002,A,4355.356,N,07926.772,W,000.0,070.1,090623,000.0,W*65
$GPGGA,150838.002,4355.356,N,07926.772,W,1,12,1.0,0.0,M,0.0,M,,*76
$GPGSA,A,3,01,02,03,04,05,06,07,08,09,10,11,12,1.0,1.0,1.0*30
$GPRMC,150838.002,A,4355.356,N,07926.772,W,000.0,070.1,090623,000.0,W*6A
$GPGGA,150839.002,4355.356,N,07926.772,W,1,12,1.0,0.0,M,0.0,M,,*77
$GPGSA,A,3,01,02,03,04,05,06,07,08,09,10,11,12,1.0,1.0,1.0*30
$GPRMC,150839.002,A,4355.356,N,07926.772,W,000.0,070.1,090623,000.0,W*6B
$GPGGA,150840.002,4355.356,N,07926.772,W,1,12,1.0,0.0,M,0.0,M,,*79
$GPGSA,A,3,01,02,03,04,05,06,07,08,09,10,11,12,1.0,1.0,1.0*30
$GPRMC,150840.002,A,4355.356,N,07926.772,W,000.0,070.1,090623,000.0,W*65
$GPGGA,150841.002,4355.356,N,07926.772,W,1,12,1.0,0.0,M,0.0,M,,*78
$GPGSA,A,3,01,02,03,04,05,06,07,08,09,10,11,12,1.0,1.0,1.0*30
$GPRMC,150841.002,A,4355.356,N,07926.772,W,000.0,070.1,090623,000.0,W*64
$GPGGA,150842.002,4355.356,N,07926.772,W,1,12,1.0,0.0,M,0.0,M,,*7B
$GPGSA,A,3,01,02,03,04,05,06,07,08,09,10,11,12,1.0,1.0,1.0*30
$GPRMC,150842.002,A,4355.356,N,07926.772,W,000.0,070.1,090623,000.0,W*67
$GPGGA,150843.002,4355.356,N,07926.772,W,1,12,1.0,0.0,M,0.0,M,,*7A
$GPGSA,A,3,01,02,03,04,05,06,07,08,09,10,11,12,1.0,1.0,1.0*30
$GPRMC,150843.002,A,4355.356,N,07926.772,W,000.0,070.1,090623,000.0,W*66
$GPGGA,150844.002,4355.356,N,07926.772,W,1,12,1.0,0.0,M,0.0,M,,*7D
$GPGSA,A,3,01,02,03,04,05,06,07,08,09,10,11,12,1.0,1.0,1.0*30
$GPRMC,150844.002,A,4355.356,N,07926.772,W,000.0,070.1,090623,000.0,W*61
$GPGGA,150845.002,4355.356,N,07926.772,W,1,12,1.0,0.0,M,0.0,M,,*7C
$GPGSA,A,3,01,02,03,04,05,06,07,08,09,10,11,12,1.0,1.0,1.0*30
$GPRMC,150845.002,A,4355.356,N,07926.772,W,000.0,070.1,090623,000.0,W*60
$GPGGA,150846.002,4355.356,N,07926.772,W,1,12,1.0,0.0,M,0.0,M,,*7F
$GPGSA,A,3,01,02,03,04,05,06,07,08,09,10,11,12,1.0,1.0,1.0*30
$GPRMC,150846.002,A,4355.356,N,07926.772,W,000.0,070.1,090623,000.0,W*63
$GPGGA,150847.002,4355.356,N,07926.772,W,1,12,1.0,0.0,M,0.0,M,,*7E
$GPGSA,A,3,01,02,03,04,05,06,07,08,09,10,11,12,1.0,1.0,1.0*30
$GPRMC,150847.002,A,4355.356,N,07926.772,W,000.0,070.1,090623,000.0,W*62
$GPGGA,150848.002,4355.356,N,07926.772,W,1,12,1.0,0.0,M,0.0,M,,*71
$GPGSA,A,3,01,02,03,04,05,06,07,08,09,10,11,12,1.0,1.0,1.0*30
$GPRMC,150848.002,A,4355.356,N,07926.772,W,000.0,070.1,090623,000.0,W*6D
$GPGGA,150849.002,4355.356,N,07926.772,W,1,12,1.0,0.0,M,0.0,M,,*70
$GPGSA,A,3,01,02,03,04,05,06,07,08,09,10,11,12,1.0,1.0,1.0*30
$GPRMC,150849.002,A,4355.356,N,07926.772,W,000.0,070.1,090623,000.0,W*6C
$GPGGA,150850.002,4355.356,N,07926.772,W,1,12,1.0,0.0,M,0.0,M,,*78
$GPGSA,A,3,01,02,03,04,05,06,07,08,09,10,11,12,1.0,1.0,1.0*30
$GPRMC,150850.002,A,4355.356,N,07926.772,W,000.0,070.1,090623,000.0,W*64
$GPGGA,150851.002,4355.356,N,07926.772,W,1,12,1.0,0.0,M,0.0,M,,*79
$GPGSA,A,3,01,02,03,04,05,06,07,08,09,10,11,12,1.0,1.0,1.0*30
$GPRMC,150851.002,A,4355.356,N,07926.772,W,000.0,070.1,090623,000.0,W*65
$GPGGA,150852.002,4355.356,N,07926.772,W,1,12,1.0,0.0,M,0.0,M,,*7A
$GPGSA,A,3,01,02,03,04,05,06,07,08,09,10,11,12,1.0,1.0,1.0*30
$GPRMC,150852.002,A,4355.356,N,07926.772,W,000.0,070.1,090623,000.0,W*66
$GPGGA,150853.002,4355.356,N,07926.772,W,1,12,1.0,0.0,M,0.0,M,,*7B
$GPGSA,A,3,01,02,03,04,05,06,07,08,09,10,11,12,1.0,1.0,1.0*30
$GPRMC,150853.002,A,4355.356,N,07926.772,W,000.0,070.1,090623,000.0,W*67
$GPGGA,150854.002,4355.356,N,07926.772,W,1,12,1.0,0.0,M,0.0,M,,*7C
$GPGSA,A,3,01,02,03,04,05,06,07,08,09,10,11,12,1.0,1.0,1.0*30
$GPRMC,150854.002,A,4355.356,N,07926.772,W,000.0,070.1,090623,000.0,W*60
$GPGGA,150855.002,4355.356,N,07926.772,W,1,12,1.0,0.0,M,0.0,M,,*7D
$GPGSA,A,3,01,02,03,04,05,06,07,08,09,10,11,12,1.0,1.0,1.0*30
$GPRMC,150855.002,A,4355.356,N,07926.772,W,000.0,070.1,090623,000.0,W*61
$GPGGA,150856.002,4355.356,N,07926.772,W,1,12,1.0,0.0,M,0.0,M,,*7E
$GPGSA,A,3,01,02,03,04,05,06,07,08,09,10,11,12,1.0,1.0,1.0*30
$GPRMC,150856.002,A,4355.356,N,07926.772,W,000.0,070.1,090623,000.0,W*62
$GPGGA,150857.002,4355.356,N,07926.772,W,1,12,1.0,0.0,M,0.0,M,,*7F
$GPGSA,A,3,01,02,03,04,05,06,07,08,09,10,11,12,1.0,1.0,1.0*30
$GPRMC,150857.002,A,4355.356,N,07926.772,W,000.0,070.1,090623,000.0,W*63
$GPGGA,150858.002,4355.356,N,07926.772,W,1,12,1.0,0.0,M,0.0,M,,*70
$GPGSA,A,3,01,02,03,04,05,06,07,08,09,10,11,12,1.0,1.0,1.0*30
$GPRMC,150858.002,A,4355.356,N,07926.772,W,000.0,070.1,090623,000.0,W*6C
$GPGGA,150859.002,4355.356,N,07926.772,W,1,12,1.0,0.0,M,0.0,M,,*71
$GPGSA,A,3,01,02,03,04,05,06,07,08,09,10,11,12,1.0,1.0,1.0*30
$GPRMC,150859.002,A,4355.356,N,07926.772,W,000.0,070.1,090623,000.0,W*6D
$GPGGA,150900.002,4355.356,N,07926.772,W,1,12,1.0,0.0,M,0.0,M,,*7C
$GPGSA,A,3,01,02,03,04,05,06,07,08,09,10,11,12,1.0,1.0,1.0*30
$GPRMC,150900.002,A,4355.356,N,07926.772,W,000.0,070.1,090623,000.0,W*60
$GPGGA,150901.002,4355.356,N,07926.772,W,1,12,1.0,0.0,M,0.0,M,,*7D
$GPGSA,A,3,01,02,03,04,05,06,07,08,09,10,11,12,1.0,1.0,1.0*30
$GPRMC,150901.002,A,4355.356,N,07926.772,W,000.0,070.1,090623,000.0,W*61
$GPGGA,150902.002,4355.356,N,07926.772,W,1,12,1.0,0.0,M,0.0,M,,*7E
$GPGSA,A,3,01,02,03,04,05,06,07,08,09,10,11,12,1.0,1.0,1.0*30
$GPRMC,150902.002,A,4355.356,N,07926.772,W,000.0,070.1,090623,000.0,W*62
$GPGGA,150903.002,4355.356,N,07926.772,W,1,12,1.0,0.0,M,0.0,M,,*7F
$GPGSA,A,3,01,02,03,04,05,06,07,08,09,10,11,12,1.0,1.0,1.0*30
$GPRMC,150903.002,A,4355.356,N,07926.772,W,000.0,070.1,090623,000.0,W*63
$GPGGA,150904.002,4355.356,N,07926.772,W,1,12,1.0,0.0,M,0.0,M,,*78
$GPGSA,A,3,01,02,03,04,05,06,07,08,09,10,11,12,1.0,1.0,1.0*30
$GPRMC,150904.002,A,4355.356,N,07926.772,W,000.0,070.1,090623,000.0,W*64
$GPGGA,150905.002,4355.356,N,07926.772,W,1,12,1.0,0.0,M,0.0,M,,*79
$GPGSA,A,3,01,02,03,04,05,06,07,08,09,10,11,12,1.0,1.0,1.0*30
$GPRMC,150905.002,A,4355.356,N,07926.772,W,000.0,070.1,090623,000.0,W*65
$GPGGA,150906.002,4355.356,N,07926.772,W,1,12,1.0,0.0,M,0.0,M,,*7A
$GPGSA,A,3,01,02,03,04,05,06,07,08,09,10,11,12,1.0,1.0,1.0*30
$GPRMC,150906.002,A,4355.356,N,07926.772,W,000.0,070.1,090623,000.0,W*66
$GPGGA,150907.002,4355.356,N,07926.772,W,1,12,1.0,0.0,M,0.0,M,,*7B
$GPGSA,A,3,01,02,03,04,05,06,07,08,09,10,11,12,1.0,1.0,1.0*30
$GPRMC,150907.002,A,4355.356,N,07926.772,W,000.0,070.1,090623,000.0,W*67
$GPGGA,150908.002,4355.356,N,07926.772,W,1,12,1.0,0.0,M,0.0,M,,*74
$GPGSA,A,3,01,02,03,04,05,06,07,08,09,10,11,12,1.0,1.0,1.0*30
$GPRMC,150908.002,A,4355.356,N,07926.772,W,000.0,070.1,090623,000.0,W*68
$GPGGA,150909.002,4355.356,N,07926.772,W,1,12,1.0,0.0,M,0.0,M,,*75
$GPGSA,A,3,01,02,03,04,05,06,07,08,09,10,11,12,1.0,1.0,1.0*30
$GPRMC,150909.002,A,4355.356,N,07926.772,W,000.0,070.1,090623,000.0,W*69
$GPGGA,150910.002,4355.356,N,07926.772,W,1,12,1.0,0.0,M,0.0,M,,*7D
$GPGSA,A,3,01,02,03,04,05,06,07,08,09,10,11,12,1.0,1.0,1.0*30
$GPRMC,150910.002,A,4355.356,N,07926.772,W,000.0,070.1,090623,000.0,W*61
$GPGGA,150911.002,4355.356,N,07926.772,W,1,12,1.0,0.0,M,0.0,M,,*7C
$GPGSA,A,3,01,02,03,04,05,06,07,08,09,10,11,12,1.0,1.0,1.0*30
$GPRMC,150911.002,A,4355.356,N,07926.772,W,000.0,070.1,090623,000.0,W*60
$GPGGA,150912.002,4355.356,N,07926.772,W,1,12,1.0,0.0,M,0.0,M,,*7F
$GPGSA,A,3,01,02,03,04,05,06,07,08,09,10,11,12,1.0,1.0,1.0*30
$GPRMC,150912.002,A,4355.356,N,07926.772,W,000.0,070.1,090623,000.0,W*63
$GPGGA,150913.002,4355.356,N,07926.772,W,1,12,1.0,0.0,M,0.0,M,,*7E
$GPGSA,A,3,01,02,03,04,05,06,07,08,09,10,11,12,1.0,1.0,1.0*30
$GPRMC,150913.002,A,4355.356,N,07926.772,W,000.0,070.1,090623,000.0,W*62
$GPGGA,150914.002,4355.356,N,07926.772,W,1,12,1.0,0.0,M,0.0,M,,*79
$GPGSA,A,3,01,02,03,04,05,06,07,08,09,10,11,12,1.0,1.0,1.0*30
$GPRMC,150914.002,A,4355.356,N,07926.772,W,000.0,070.1,090623,000.0,W*65
$GPGGA,150915.002,4355.356,N,07926.772,W,1,12,1.0,0.0,M,0.0,M,,*78
$GPGSA,A,3,01,02,03,04,05,06,07,08,09,10,11,12,1.0,1.0,1.0*30
$GPRMC,150915.002,A,4355.356,N,07926.772,W,000.0,070.1,090623,000.0,W*64
$GPGGA,150916.002,4355.356,N,07926.772,W,1,12,1.0,0.0,M,0.0,M,,*7B
$GPGSA,A,3,01,02,03,04,05,06,07,08,09,10,11,12,1.0,1.0,1.0*30
$GPRMC,150916.002,A,4355.356,N,07926.772,W,000.0,070.1,090623,000.0,W*67
$GPGGA,150917.002,4355.356,N,07926.772,W,1,12,1.0,0.0,M,0.0,M,,*7A
$GPGSA,A,3,01,02,03,04,05,06,07,08,09,10,11,12,1.0,1.0,1.0*30
$GPRMC,150917.002,A,4355.356,N,07926.772,W,000.0,070.1,090623,000.0,W*66
$GPGGA,150918.002,4355.356,N,07926.772,W,1,12,1.0,0.0,M,0.0,M,,*75
$GPGSA,A,3,01,02,03,04,05,06,07,08,09,10,11,12,1.0,1.0,1.0*30
$GPRMC,150918.002,A,4355.356,N,07926.772,W,000.0,070.1,090623,000.0,W*69
$GPGGA,150919.002,4355.356,N,07926.772,W,1,12,1.0,0.0,M,0.0,M,,*74
$GPGSA,A,3,01,02,03,04,05,06,07,08,09,10,11,12,1.0,1.0,1.0*30
$GPRMC,150919.002,A,4355.356,N,07926.772,W,000.0,070.1,090623,000.0,W*68
$GPGGA,150920.002,4355.356,N,07926.772,W,1,12,1.0,0.0,M,0.0,M,,*7E
$GPGSA,A,3,01,02,03,04,05,06,07,08,09,10,11,12,1.0,1.0,1.0*30
$GPRMC,150920.002,A,4355.356,N,07926.772,W,000.0,070.1,090623,000.0,W*62
$GPGGA,150921.002,4355.356,N,07926.772,W,1,12,1.0,0.0,M,0.0,M,,*7F
$GPGSA,A,3,01,02,03,04,05,06,07,08,09,10,11,12,1.0,1.0,1.0*30
$GPRMC,150921.002,A,4355.356,N,07926.772,W,000.0,070.1,090623,000.0,W*63
$GPGGA,150922.002,4355.356,N,07926.772,W,1,12,1.0,0.0,M,0.0,M,,*7C
$GPGSA,A,3,01,02,03,04,05,06,07,08,09,10,11,12,1.0,1.0,1.0*30
$GPRMC,150922.002,A,4355.356,N,07926.772,W,000.0,070.1,090623,000.0,W*60
$GPGGA,150923.002,4355.356,N,07926.772,W,1,12,1.0,0.0,M,0.0,M,,*7D
$GPGSA,A,3,01,02,03,04,05,06,07,08,09,10,11,12,1.0,1.0,1.0*30
$GPRMC,150923.002,A,4355.356,N,07926.772,W,000.0,070.1,090623,000.0,W*61
$GPGGA,150924.002,4355.356,N,07926.772,W,1,12,1.0,0.0,M,0.0,M,,*7A
$GPGSA,A,3,01,02,03,04,05,06,07,08,09,10,11,12,1.0,1.0,1.0*30
$GPRMC,150924.002,A,4355.356,N,07926.772,W,000.0,070.1,090623,000.0,W*66
$GPGGA,150925.002,4355.356,N,07926.772,W,1,12,1.0,0.0,M,0.0,M,,*7B
$GPGSA,A,3,01,02,03,04,05,06,07,08,09,10,11,12,1.0,1.0,1.0*30
$GPRMC,150925.002,A,4355.356,N,07926.772,W,000.0,070.1,090623,000.0,W*67
$GPGGA,150926.002,4355.356,N,07926.772,W,1,12,1.0,0.0,M,0.0,M,,*78
$GPGSA,A,3,01,02,03,04,05,06,07,08,09,10,11,12,1.0,1.0,1.0*30
$GPRMC,150926.002,A,4355.356,N,07926.772,W,000.0,070.1,090623,000.0,W*64
$GPGGA,150927.002,4355.356,N,07926.772,W,1,12,1.0,0.0,M,0.0,M,,*79
$GPGSA,A,3,01,02,03,04,05,06,07,08,09,10,11,12,1.0,1.0,1.0*30
$GPRMC,150927.002,A,4355.356,N,07926.772,W,000.0,070.1,090623,000.0,W*65
$GPGGA,150928.002,4355.356,N,07926.772,W,1,12,1.0,0.0,M,0.0,M,,*76
$GPGSA,A,3,01,02,03,04,05,06,07,08,09,10,11,12,1.0,1.0,1.0*30
$GPRMC,150928.002,A,4355.356,N,07926.772,W,000.0,070.1,090623,000.0,W*6A
$GPGGA,150929.002,4355.356,N,07926.772,W,1,12,1.0,0.0,M,0.0,M,,*77
$GPGSA,A,3,01,02,03,04,05,06,07,08,09,10,11,12,1.0,1.0,1.0*30
$GPRMC,150929.002,A,4355.356,N,07926.772,W,000.0,070.1,090623,000.0,W*6B
$GPGGA,150930.002,4355.356,N,07926.772,W,1,12,1.0,0.0,M,0.0,M,,*7F
$GPGSA,A,3,01,02,03,04,05,06,07,08,09,10,11,12,1.0,1.0,1.0*30
$GPRMC,150930.002,A,4355.356,N,07926.772,W,000.0,070.1,090623,000.0,W*63
$GPGGA,150931.002,4355.356,N,07926.772,W,1,12,1.0,0.0,M,0.0,M,,*7E
$GPGSA,A,3,01,02,03,04,05,06,07,08,09,10,11,12,1.0,1.0,1.0*30
$GPRMC,150931.002,A,4355.356,N,07926.772,W,000.0,070.1,090623,000.0,W*62
$GPGGA,150932.002,4355.356,N,07926.772,W,1,12,1.0,0.0,M,0.0,M,,*7D
$GPGSA,A,3,01,02,03,04,05,06,07,08,09,10,11,12,1.0,1.0,1.0*30
$GPRMC,150932.002,A,4355.356,N,07926.772,W,000.0,070.1,090623,000.0,W*61
$GPGGA,150933.002,4355.356,N,07926.772,W,1,12,1.0,0.0,M,0.0,M,,*7C
$GPGSA,A,3,01,02,03,04,05,06,07,08,09,10,11,12,1.0,1.0,1.0*30
$GPRMC,150933.002,A,4355.356,N,07926.772,W,000.0,070.1,090623,000.0,W*60
$GPGGA,150934.002,4355.356,N,07926.772,W,1,12,1.0,0.0,M,0.0,M,,*7B
$GPGSA,A,3,01,02,03,04,05,06,07,08,09,10,11,12,1.0,1.0,1.0*30
$GPRMC,150934.002,A,4355.356,N,07926.772,W,000.0,070.1,090623,000.0,W*67
$GPGGA,150935.002,4355.356,N,07926.772,W,1,12,1.0,0.0,M,0.0,M,,*7A
$GPGSA,A,3,01,02,03,04,05,06,07,08,09,10,11,12,1.0,1.0,1.0*30
$GPRMC,150935.002,A,4355.356,N,07926.772,W,000.0,070.1,090623,000.0,W*66
$GPGGA,150936.002,4355.356,N,07926.772,W,1,12,1.0,0.0,M,0.0,M,,*79
$GPGSA,A,3,01,02,03,04,05,06,07,08,09,10,11,12,1.0,1.0,1.0*30
$GPRMC,150936.002,A,4355.356,N,07926.772,W,000.0,070.1,090623,000.0,W*65
$GPGGA,150937.002,4355.356,N,07926.772,W,1,12,1.0,0.0,M,0.0,M,,*78
$GPGSA,A,3,01,02,03,04,05,06,07,08,09,10,11,12,1.0,1.0,1.0*30
$GPRMC,150937.002,A,4355.356,N,07926.772,W,000.0,070.1,090623,000.0,W*64
$GPGGA,150938.002,4355.356,N,07926.772,W,1,12,1.0,0.0,M,0.0,M,,*77
$GPGSA,A,3,01,02,03,04,05,06,07,08,09,10,11,12,1.0,1.0,1.0*30
$GPRMC,150938.002,A,4355.356,N,07926.772,W,000.0,070.1,090623,000.0,W*6B
$GPGGA,150939.002,4355.356,N,07926.772,W,1,12,1.0,0.0,M,0.0,M,,*76
$GPGSA,A,3,01,02,03,04,05,06,07,08,09,10,11,12,1.0,1.0,1.0*30
$GPRMC,150939.002,A,4355.356,N,07926.772,W,000.0,070.1,090623,000.0,W*6A
$GPGGA,150940.002,4355.356,N,07926.772,W,1,12,1.0,0.0,M,0.0,M,,*78
$GPGSA,A,3,01,02,03,04,05,06,07,08,09,10,11,12,1.0,1.0,1.0*30
$GPRMC,150940.002,A,4355.356,N,07926.772,W,000.0,070.1,090623,000.0,W*64
$GPGGA,150941.002,4355.356,N,07926.772,W,1,12,1.0,0.0,M,0.0,M,,*79
$GPGSA,A,3,01,02,03,04,05,06,07,08,09,10,11,12,1.0,1.0,1.0*30
$GPRMC,150941.002,A,4355.356,N,07926.772,W,000.0,070.1,090623,000.0,W*65
$GPGGA,150942.002,4355.356,N,07926.772,W,1,12,1.0,0.0,M,0.0,M,,*7A
$GPGSA,A,3,01,02,03,04,05,06,07,08,09,10,11,12,1.0,1.0,1.0*30
$GPRMC,150942.002,A,4355.356,N,07926.772,W,000.0,070.1,090623,000.0,W*66
$GPGGA,150943.002,4355.356,N,07926.772,W,1,12,1.0,0.0,M,0.0,M,,*7B
$GPGSA,A,3,01,02,03,04,05,06,07,08,09,10,11,12,1.0,1.0,1.0*30
$GPRMC,150943.002,A,4355.356,N,07926.772,W,000.0,070.1,090623,000.0,W*67
$GPGGA,150944.002,4355.356,N,07926.772,W,1,12,1.0,0.0,M,0.0,M,,*7C
$GPGSA,A,3,01,02,03,04,05,06,07,08,09,10,11,12,1.0,1.0,1.0*30
$GPRMC,150944.002,A,4355.356,N,07926.772,W,000.0,070.1,090623,000.0,W*60
$GPGGA,150945.002,4355.356,N,07926.772,W,1,12,1.0,0.0,M,0.0,M,,*7D
$GPGSA,A,3,01,02,03,04,05,06,07,08,09,10,11,12,1.0,1.0,1.0*30
$GPRMC,150945.002,A,4355.356,N,07926.772,W,000.0,070.1,090623,000.0,W*61
$GPGGA,150946.002,4355.356,N,07926.772,W,1,12,1.0,0.0,M,0.0,M,,*7E
$GPGSA,A,3,01,02,03,04,05,06,07,08,09,10,11,12,1.0,1.0,1.0*30
$GPRMC,150946.002,A,4355.356,N,07926.772,W,000.0,070.1,090623,000.0,W*62
$GPGGA,150947.002,4355.356,N,07926.772,W,1,12,1.0,0.0,M,0.0,M,,*7F
$GPGSA,A,3,01,02,03,04,05,06,07,08,09,10,11,12,1.0,1.0,1.0*30
$GPRMC,150947.002,A,4355.356,N,07926.772,W,000.0,070.1,090623,000.0,W*63
$GPGGA,150948.002,4355.356,N,07926.772,W,1,12,1.0,0.0,M,0.0,M,,*70
$GPGSA,A,3,01,02,03,04,05,06,07,08,09,10,11,12,1.0,1.0,1.0*30
$GPRMC,150948.002,A,4355.356,N,07926.772,W,000.0,070.1,090623,000.0,W*6C
$GPGGA,150949.002,4355.356,N,07926.772,W,1,12,1.0,0.0,M,0.0,M,,*71
$GPGSA,A,3,01,02,03,04,05,06,07,08,09,10,11,12,1.0,1.0,1.0*30
$GPRMC,150949.002,A,4355.356,N,07926.772,W,000.0,070.1,090623,000.0,W*6D
$GPGGA,150950.002,4355.356,N,07926.772,W,1,12,1.0,0.0,M,0.0,M,,*79
$GPGSA,A,3,01,02,03,04,05,06,07,08,09,10,11,12,1.0,1.0,1.0*30
$GPRMC,150950.002,A,4355.356,N,07926.772,W,000.0,070.1,090623,000.0,W*65
$GPGGA,150951.002,4355.356,N,07926.772,W,1,12,1.0,0.0,M,0.0,M,,*78
$GPGSA,A,3,01,02,03,04,05,06,07,08,09,10,11,12,1.0,1.0,1.0*30
$GPRMC,150951.002,A,4355.356,N,07926.772,W,000.0,070.1,090623,000.0,W*64
$GPGGA,150952.002,4355.356,N,07926.772,W,1,12,1.0,0.0,M,0.0,M,,*7B
$GPGSA,A,3,01,02,03,04,05,06,07,08,09,10,11,12,1.0,1.0,1.0*30
$GPRMC,150952.002,A,4355.356,N,07926.772,W,000.0,070.1,090623,000.0,W*67
$GPGGA,150953.002,4355.356,N,07926.772,W,1,12,1.0,0.0,M,0.0,M,,*7A
$GPGSA,A,3,01,02,03,04,05,06,07,08,09,10,11,12,1.0,1.0,1.0*30
$GPRMC,150953.002,A,4355.356,N,07926.772,W,000.0,070.1,090623,000.0,W*66
$GPGGA,150954.002,4355.356,N,07926.772,W,1,12,1.0,0.0,M,0.0,M,,*7D
$GPGSA,A,3,01,02,03,04,05,06,07,08,09,10,11,12,1.0,1.0,1.0*30
$GPRMC,150954.002,A,4355.356,N,07926.772,W,000.0,070.1,090623,000.0,W*61
$GPGGA,150955.002,4355.356,N,07926.772,W,1,12,1.0,0.0,M,0.0,M,,*7C
$GPGSA,A,3,01,02,03,04,05,06,07,08,09,10,11,12,1.0,1.0,1.0*30
$GPRMC,150955.002,A,4355.356,N,07926.772,W,000.0,070.1,090623,000.0,W*60
$GPGGA,150956.002,4355.356,N,07926.772,W,1,12,1.0,0.0,M,0.0,M,,*7F
$GPGSA,A,3,01,02,03,04,05,06,07,08,09,10,11,12,1.0,1.0,1.0*30
$GPRMC,150956.002,A,4355.356,N,07926.772,W,000.0,070.1,090623,000.0,W*63
$GPGGA,150957.002,4355.356,N,07926.772,W,1,12,1.0,0.0,M,0.0,M,,*7E
$GPGSA,A,3,01,02,03,04,05,06,07,08,09,10,11,12,1.0,1.0,1.0*30
$GPRMC,150957.002,A,4355.356,N,07926.772,W,000.0,070.1,090623,000.0,W*62
$GPGGA,150958.002,4355.356,N,07926.772,W,1,12,1.0,0.0,M,0.0,M,,*71
$GPGSA,A,3,01,02,03,04,05,06,07,08,09,10,11,12,1.0,1.0,1.0*30
$GPRMC,150958.002,A,4355.356,N,07926.772,W,000.0,070.1,090623,000.0,W*6D
$GPGGA,150959.002,4355.356,N,07926.772,W,1,12,1.0,0.0,M,0.0,M,,*70
$GPGSA,A,3,01,02,03,04,05,06,07,08,09,10,11,12,1.0,1.0,1.0*30
$GPRMC,150959.002,A,4355.356,N,07926.772,W,000.0,070.1,090623,000.0,W*6C
$GPGGA,151000.002,4355.356,N,07926.772,W,1,12,1.0,0.0,M,0.0,M,,*74
$GPGSA,A,3,01,02,03,04,05,06,07,08,09,10,11,12,1.0,1.0,1.0*30
$GPRMC,151000.002,A,4355.356,N,07926.772,W,000.0,070.1,090623,000.0,W*68
$GPGGA,151001.002,4355.356,N,07926.772,W,1,12,1.0,0.0,M,0.0,M,,*75
$GPGSA,A,3,01,02,03,04,05,06,07,08,09,10,11,12,1.0,1.0,1.0*30
$GPRMC,151001.002,A,4355.356,N,07926.772,W,000.0,070.1,090623,000.0,W*69
$GPGGA,151002.002,4355.356,N,07926.772,W,1,12,1.0,0.0,M,0.0,M,,*76
$GPGSA,A,3,01,02,03,04,05,06,07,08,09,10,11,12,1.0,1.0,1.0*30
$GPRMC,151002.002,A,4355.356,N,07926.772,W,000.0,070.1,090623,000.0,W*6A
$GPGGA,151003.002,4355.356,N,07926.772,W,1,12,1.0,0.0,M,0.0,M,,*77
$GPGSA,A,3,01,02,03,04,05,06,07,08,09,10,11,12,1.0,1.0,1.0*30
$GPRMC,151003.002,A,4355.356,N,07926.772,W,000.0,070.1,090623,000.0,W*6B
$GPGGA,151004.002,4355.356,N,07926.772,W,1,12,1.0,0.0,M,0.0,M,,*70
$GPGSA,A,3,01,02,03,04,05,06,07,08,09,10,11,12,1.0,1.0,1.0*30
$GPRMC,151004.002,A,4355.356,N,07926.772,W,000.0,070.1,090623,000.0,W*6C
$GPGGA,151005.002,4355.356,N,07926.772,W,1,12,1.0,0.0,M,0.0,M,,*71
$GPGSA,A,3,01,02,03,04,05,06,07,08,09,10,11,12,1.0,1.0,1.0*30
$GPRMC,151005.002,A,4355.356,N,07926.772,W,000.0,070.1,090623,000.0,W*6D
$GPGGA,151006.002,4355.356,N,07926.772,W,1,12,1.0,0.0,M,0.0,M,,*72
$GPGSA,A,3,01,02,03,04,05,06,07,08,09,10,11,12,1.0,1.0,1.0*30
$GPRMC,151006.002,A,4355.356,N,07926.772,W,000.0,070.1,090623,000.0,W*6E
$GPGGA,151007.002,4355.356,N,07926.772,W,1,12,1.0,0.0,M,0.0,M,,*73
$GPGSA,A,3,01,02,03,04,05,06,07,08,09,10,11,12,1.0,1.0,1.0*30
$GPRMC,151007.002,A,4355.356,N,07926.772,W,000.0,070.1,090623,000.0,W*6F
$GPGGA,151008.002,4355.356,N,07926.772,W,1,12,1.0,0.0,M,0.0,M,,*7C
$GPGSA,A,3,01,02,03,04,05,06,07,08,09,10,11,12,1.0,1.0,1.0*30
$GPRMC,151008.002,A,4355.356,N,07926.772,W,000.0,070.1,090623,000.0,W*60
$GPGGA,151009.002,4355.356,N,07926.772,W,1,12,1.0,0.0,M,0.0,M,,*7D
$GPGSA,A,3,01,02,03,04,05,06,07,08,09,10,11,12,1.0,1.0,1.0*30
$GPRMC,151009.002,A,4355.356,N,07926.772,W,000.0,070.1,090623,000.0,W*61
$GPGGA,151010.002,4355.356,N,07926.772,W,1,12,1.0,0.0,M,0.0,M,,*75
$GPGSA,A,3,01,02,03,04,05,06,07,08,09,10,11,12,1.0,1.0,1.0*30
$GPRMC,151010.002,A,4355.356,N,07926.772,W,000.0,070.1,090623,000.0,W*69
$GPGGA,151011.002,4355.356,N,07926.772,W,1,12,1.0,0.0,M,0.0,M,,*74
$GPGSA,A,3,01,02,03,04,05,06,07,08,09,10,11,12,1.0,1.0,1.0*30
$GPRMC,151011.002,A,4355.356,N,07926.772,W,000.0,070.1,090623,000.0,W*68
$GPGGA,151012.002,4355.356,N,07926.772,W,1,12,1.0,0.0,M,0.0,M,,*77
$GPGSA,A,3,01,02,03,04,05,06,07,08,09,10,11,12,1.0,1.0,1.0*30
$GPRMC,151012.002,A,4355.356,N,07926.772,W,000.0,070.1,090623,000.0,W*6B
$GPGGA,151013.002,4355.356,N,07926.772,W,1,12,1.0,0.0,M,0.0,M,,*76
$GPGSA,A,3,01,02,03,04,05,06,07,08,09,10,11,12,1.0,1.0,1.0*30
$GPRMC,151013.002,A,4355.356,N,07926.772,W,000.0,070.1,090623,000.0,W*6A
$GPGGA,151014.002,4355.356,N,07926.772,W,1,12,1.0,0.0,M,0.0,M,,*71
$GPGSA,A,3,01,02,03,04,05,06,07,08,09,10,11,12,1.0,1.0,1.0*30
$GPRMC,151014.002,A,4355.356,N,07926.772,W,000.0,070.1,090623,000.0,W*6D
$GPGGA,151015.002,4355.356,N,07926.772,W,1,12,1.0,0.0,M,0.0,M,,*70
$GPGSA,A,3,01,02,03,04,05,06,07,08,09,10,11,12,1.0,1.0,1.0*30
$GPRMC,151015.002,A,4355.356,N,07926.772,W,000.0,070.1,090623,000.0,W*6C
$GPGGA,151016.002,4355.356,N,07926.772,W,1,12,1.0,0.0,M,0.0,M,,*73
$GPGSA,A,3,01,02,03,04,05,06,07,08,09,10,11,12,1.0,1.0,1.0*30
$GPRMC,151016.002,A,4355.356,N,07926.772,W,000.0,070.1,090623,000.0,W*6F
$GPGGA,151017.002,4355.356,N,07926.772,W,1,12,1.0,0.0,M,0.0,M,,*72
$GPGSA,A,3,01,02,03,04,05,06,07,08,09,10,11,12,1.0,1.0,1.0*30
$GPRMC,151017.002,A,4355.356,N,07926.772,W,000.0,070.1,090623,000.0,W*6E
$GPGGA,151018.002,4355.356,N,07926.772,W,1,12,1.0,0.0,M,0.0,M,,*7D
$GPGSA,A,3,01,02,03,04,05,06,07,08,09,10,11,12,1.0,1.0,1.0*30
$GPRMC,151018.002,A,4355.356,N,07926.772,W,000.0,070.1,090623,000.0,W*61
$GPGGA,151019.002,4355.356,N,07926.772,W,1,12,1.0,0.0,M,0.0,M,,*7C
$GPGSA,A,3,01,02,03,04,05,06,07,08,09,10,11,12,1.0,1.0,1.0*30
$GPRMC,151019.002,A,4355.356,N,07926.772,W,000.0,070.1,090623,000.0,W*60
$GPGGA,151020.002,4355.356,N,07926.772,W,1,12,1.0,0.0,M,0.0,M,,*76
$GPGSA,A,3,01,02,03,04,05,06,07,08,09,10,11,12,1.0,1.0,1.0*30
$GPRMC,151020.002,A,4355.356,N,07926.772,W,000.0,070.1,090623,000.0,W*6A
$GPGGA,151021.002,4355.356,N,07926.772,W,1,12,1.0,0.0,M,0.0,M,,*77
$GPGSA,A,3,01,02,03,04,05,06,07,08,09,10,11,12,1.0,1.0,1.0*30
$GPRMC,151021.002,A,4355.356,N,07926.772,W,000.0,070.1,090623,000.0,W*6B
$GPGGA,151022.002,4355.356,N,07926.772,W,1,12,1.0,0.0,M,0.0,M,,*74
$GPGSA,A,3,01,02,03,04,05,06,07,08,09,10,11,12,1.0,1.0,1.0*30
$GPRMC,151022.002,A,4355.356,N,07926.772,W,000.0,070.1,090623,000.0,W*68
$GPGGA,151023.002,4355.356,N,07926.772,W,1,12,1.0,0.0,M,0.0,M,,*75
$GPGSA,A,3,01,02,03,04,05,06,07,08,09,10,11,12,1.0,1.0,1.0*30
$GPRMC,151023.002,A,4355.356,N,07926.772,W,000.0,070.1,090623,000.0,W*69
$GPGGA,151024.002,4355.356,N,07926.772,W,1,12,1.0,0.0,M,0.0,M,,*72
$GPGSA,A,3,01,02,03,04,05,06,07,08,09,10,11,12,1.0,1.0,1.0*30
$GPRMC,151024.002,A,4355.356,N,07926.772,W,000.0,070.1,090623,000.0,W*6E
$GPGGA,151025.002,4355.356,N,07926.772,W,1,12,1.0,0.0,M,0.0,M,,*73
$GPGSA,A,3,01,02,03,04,05,06,07,08,09,10,11,12,1.0,1.0,1.0*30
$GPRMC,151025.002,A,4355.356,N,07926.772,W,000.0,070.1,090623,000.0,W*6F
$GPGGA,151026.002,4355.356,N,07926.772,W,1,12,1.0,0.0,M,0.0,M,,*70
$GPGSA,A,3,01,02,03,04,05,06,07,08,09,10,11,12,1.0,1.0,1.0*30
$GPRMC,151026.002,A,4355.356,N,07926.772,W,000.0,070.1,090623,000.0,W*6C
$GPGGA,151027.002,4355.356,N,07926.772,W,1,12,1.0,0.0,M,0.0,M,,*71
$GPGSA,A,3,01,02,03,04,05,06,07,08,09,10,11,12,1.0,1.0,1.0*30
$GPRMC,151027.002,A,4355.356,N,07926.772,W,000.0,070.1,090623,000.0,W*6D
$GPGGA,151028.002,4355.356,N,07926.772,W,1,12,1.0,0.0,M,0.0,M,,*7E
$GPGSA,A,3,01,02,03,04,05,06,07,08,09,10,11,12,1.0,1.0,1.0*30
$GPRMC,151028.002,A,4355.356,N,07926.772,W,000.0,070.1,090623,000.0,W*62
$GPGGA,151029.002,4355.356,N,07926.772,W,1,12,1.0,0.0,M,0.0,M,,*7F
$GPGSA,A,3,01,02,03,04,05,06,07,08,09,10,11,12,1.0,1.0,1.0*30
$GPRMC,151029.002,A,4355.356,N,07926.772,W,000.0,070.1,090623,000.0,W*63
$GPGGA,151030.002,4355.356,N,07926.772,W,1,12,1.0,0.0,M,0.0,M,,*77
$GPGSA,A,3,01,02,03,04,05,06,07,08,09,10,11,12,1.0,1.0,1.0*30
$GPRMC,151030.002,A,4355.356,N,07926.772,W,000.0,070.1,090623,000.0,W*6B
$GPGGA,151031.002,4355.356,N,07926.772,W,1,12,1.0,0.0,M,0.0,M,,*76
$GPGSA,A,3,01,02,03,04,05,06,07,08,09,10,11,12,1.0,1.0,1.0*30
$GPRMC,151031.002,A,4355.356,N,07926.772,W,000.0,070.1,090623,000.0,W*6A
$GPGGA,151032.002,4355.356,N,07926.772,W,1,12,1.0,0.0,M,0.0,M,,*75
$GPGSA,A,3,01,02,03,04,05,06,07,08,09,10,11,12,1.0,1.0,1.0*30
$GPRMC,151032.002,A,4355.356,N,07926.772,W,000.0,070.1,090623,000.0,W*69
$GPGGA,151033.002,4355.356,N,07926.772,W,1,12,1.0,0.0,M,0.0,M,,*74
$GPGSA,A,3,01,02,03,04,05,06,07,08,09,10,11,12,1.0,1.0,1.0*30
$GPRMC,151033.002,A,4355.356,N,07926.772,W,000.0,070.1,090623,000.0,W*68
$GPGGA,151034.002,4355.356,N,07926.772,W,1,12,1.0,0.0,M,0.0,M,,*73
$GPGSA,A,3,01,02,03,04,05,06,07,08,09,10,11,12,1.0,1.0,1.0*30
$GPRMC,151034.002,A,4355.356,N,07926.772,W,000.0,070.1,090623,000.0,W*6F
$GPGGA,151035.002,4355.356,N,07926.772,W,1,12,1.0,0.0,M,0.0,M,,*72
$GPGSA,A,3,01,02,03,04,05,06,07,08,09,10,11,12,1.0,1.0,1.0*30
$GPRMC,151035.002,A,4355.356,N,07926.772,W,000.0,070.1,090623,000.0,W*6E
$GPGGA,151036.002,4355.356,N,07926.772,W,1,12,1.0,0.0,M,0.0,M,,*71
$GPGSA,A,3,01,02,03,04,05,06,07,08,09,10,11,12,1.0,1.0,1.0*30
$GPRMC,151036.002,A,4355.356,N,07926.772,W,000.0,070.1,090623,000.0,W*6D
$GPGGA,151037.002,4355.356,N,07926.772,W,1,12,1.0,0.0,M,0.0,M,,*70
$GPGSA,A,3,01,02,03,04,05,06,07,08,09,10,11,12,1.0,1.0,1.0*30
$GPRMC,151037.002,A,4355.356,N,07926.772,W,000.0,070.1,090623,000.0,W*6C
$GPGGA,151038.002,4355.356,N,07926.772,W,1,12,1.0,0.0,M,0.0,M,,*7F
$GPGSA,A,3,01,02,03,04,05,06,07,08,09,10,11,12,1.0,1.0,1.0*30
$GPRMC,151038.002,A,4355.356,N,07926.772,W,000.0,070.1,090623,000.0,W*63
$GPGGA,151039.002,4355.356,N,07926.772,W,1,12,1.0,0.0,M,0.0,M,,*7E
$GPGSA,A,3,01,02,03,04,05,06,07,08,09,10,11,12,1.0,1.0,1.0*30
$GPRMC,151039.002,A,4355.356,N,07926.772,W,000.0,070.1,090623,000.0,W*62
$GPGGA,151040.002,4355.356,N,07926.772,W,1,12,1.0,0.0,M,0.0,M,,*70
$GPGSA,A,3,01,02,03,04,05,06,07,08,09,10,11,12,1.0,1.0,1.0*30
$GPRMC,151040.002,A,4355.356,N,07926.772,W,000.0,070.1,090623,000.0,W*6C
$GPGGA,151041.002,4355.356,N,07926.772,W,1,12,1.0,0.0,M,0.0,M,,*71
$GPGSA,A,3,01,02,03,04,05,06,07,08,09,10,11,12,1.0,1.0,1.0*30
$GPRMC,151041.002,A,4355.356,N,07926.772,W,000.0,070.1,090623,000.0,W*6D
$GPGGA,151042.002,4355.356,N,07926.772,W,1,12,1.0,0.0,M,0.0,M,,*72
$GPGSA,A,3,01,02,03,04,05,06,07,08,09,10,11,12,1.0,1.0,1.0*30
$GPRMC,151042.002,A,4355.356,N,07926.772,W,000.0,070.1,090623,000.0,W*6E
$GPGGA,151043.002,4355.356,N,07926.772,W,1,12,1.0,0.0,M,0.0,M,,*73
$GPGSA,A,3,01,02,03,04,05,06,07,08,09,10,11,12,1.0,1.0,1.0*30
$GPRMC,151043.002,A,4355.356,N,07926.772,W,000.0,070.1,090623,000.0,W*6F
$GPGGA,151044.002,4355.356,N,07926.772,W,1,12,1.0,0.0,M,0.0,M,,*74
$GPGSA,A,3,01,02,03,04,05,06,07,08,09,10,11,12,1.0,1.0,1.0*30
$GPRMC,151044.002,A,4355.356,N,07926.772,W,000.0,070.1,090623,000.0,W*68
$GPGGA,151045.002,4355.356,N,07926.772,W,1,12,1.0,0.0,M,0.0,M,,*75
$GPGSA,A,3,01,02,03,04,05,06,07,08,09,10,11,12,1.0,1.0,1.0*30
$GPRMC,151045.002,A,4355.356,N,07926.772,W,000.0,070.1,090623,000.0,W*69
$GPGGA,151046.002,4355.356,N,07926.772,W,1,12,1.0,0.0,M,0.0,M,,*76
$GPGSA,A,3,01,02,03,04,05,06,07,08,09,10,11,12,1.0,1.0,1.0*30
$GPRMC,151046.002,A,4355.356,N,07926.772,W,000.0,070.1,090623,000.0,W*6A
$GPGGA,151047.002,4355.356,N,07926.772,W,1,12,1.0,0.0,M,0.0,M,,*77
$GPGSA,A,3,01,02,03,04,05,06,07,08,09,10,11,12,1.0,1.0,1.0*30
$GPRMC,151047.002,A,4355.356,N,07926.772,W,000.0,070.1,090623,000.0,W*6B
$GPGGA,151048.002,4355.356,N,07926.772,W,1,12,1.0,0.0,M,0.0,M,,*78
$GPGSA,A,3,01,02,03,04,05,06,07,08,09,10,11,12,1.0,1.0,1.0*30
$GPRMC,151048.002,A,4355.356,N,07926.772,W,000.0,070.1,090623,000.0,W*64
$GPGGA,151049.002,4355.356,N,07926.772,W,1,12,1.0,0.0,M,0.0,M,,*79
$GPGSA,A,3,01,02,03,04,05,06,07,08,09,10,11,12,1.0,1.0,1.0*30
$GPRMC,151049.002,A,4355.356,N,07926.772,W,000.0,070.1,090623,000.0,W*65
$GPGGA,151050.002,4355.356,N,07926.772,W,1,12,1.0,0.0,M,0.0,M,,*71
$GPGSA,A,3,01,02,03,04,05,06,07,08,09,10,11,12,1.0,1.0,1.0*30
$GPRMC,151050.002,A,4355.356,N,07926.772,W,000.0,070.1,090623,000.0,W*6D
$GPGGA,151051.002,4355.356,N,07926.772,W,1,12,1.0,0.0,M,0.0,M,,*70
$GPGSA,A,3,01,02,03,04,05,06,07,08,09,10,11,12,1.0,1.0,1.0*30
$GPRMC,151051.002,A,4355.356,N,07926.772,W,000.0,070.1,090623,000.0,W*6C
$GPGGA,151052.002,4355.356,N,07926.772,W,1,12,1.0,0.0,M,0.0,M,,*73
$GPGSA,A,3,01,02,03,04,05,06,07,08,09,10,11,12,1.0,1.0,1.0*30
$GPRMC,151052.002,A,4355.356,N,07926.772,W,000.0,070.1,090623,000.0,W*6F
$GPGGA,151053.002,4355.356,N,07926.772,W,1,12,1.0,0.0,M,0.0,M,,*72
$GPGSA,A,3,01,02,03,04,05,06,07,08,09,10,11,12,1.0,1.0,1.0*30
$GPRMC,151053.002,A,4355.356,N,07926.772,W,000.0,070.1,090623,000.0,W*6E
$GPGGA,151054.002,4355.356,N,07926.772,W,1,12,1.0,0.0,M,0.0,M,,*75
$GPGSA,A,3,01,02,03,04,05,06,07,08,09,10,11,12,1.0,1.0,1.0*30
$GPRMC,151054.002,A,4355.356,N,07926.772,W,000.0,070.1,090623,000.0,W*69
$GPGGA,151055.002,4355.356,N,07926.771,W,1,12,1.0,0.0,M,0.0,M,,*77
$GPGSA,A,3,01,02,03,04,05,06,07,08,09,10,11,12,1.0,1.0,1.0*30
$GPRMC,151055.002,A,4355.356,N,07926.771,W,000.0,070.1,090623,000.0,W*6B
$GPGGA,151056.002,4355.356,N,07926.771,W,1,12,1.0,0.0,M,0.0,M,,*74
$GPGSA,A,3,01,02,03,04,05,06,07,08,09,10,11,12,1.0,1.0,1.0*30
$GPRMC,151056.002,A,4355.356,N,07926.771,W,000.0,070.1,090623,000.0,W*68
$GPGGA,151057.002,4355.356,N,07926.771,W,1,12,1.0,0.0,M,0.0,M,,*75
$GPGSA,A,3,01,02,03,04,05,06,07,08,09,10,11,12,1.0,1.0,1.0*30
$GPRMC,151057.002,A,4355.356,N,07926.771,W,000.0,070.1,090623,000.0,W*69
$GPGGA,151058.002,4355.356,N,07926.771,W,1,12,1.0,0.0,M,0.0,M,,*7A
$GPGSA,A,3,01,02,03,04,05,06,07,08,09,10,11,12,1.0,1.0,1.0*30
$GPRMC,151058.002,A,4355.356,N,07926.771,W,000.0,070.1,090623,000.0,W*66
$GPGGA,151059.002,4355.356,N,07926.771,W,1,12,1.0,0.0,M,0.0,M,,*7B
$GPGSA,A,3,01,02,03,04,05,06,07,08,09,10,11,12,1.0,1.0,1.0*30
$GPRMC,151059.002,A,4355.356,N,07926.771,W,000.0,070.1,090623,000.0,W*67
$GPGGA,151100.002,4355.356,N,07926.771,W,1,12,1.0,0.0,M,0.0,M,,*76
$GPGSA,A,3,01,02,03,04,05,06,07,08,09,10,11,12,1.0,1.0,1.0*30
$GPRMC,151100.002,A,4355.356,N,07926.771,W,000.0,070.1,090623,000.0,W*6A
$GPGGA,151101.002,4355.356,N,07926.771,W,1,12,1.0,0.0,M,0.0,M,,*77
$GPGSA,A,3,01,02,03,04,05,06,07,08,09,10,11,12,1.0,1.0,1.0*30
$GPRMC,151101.002,A,4355.356,N,07926.771,W,000.0,070.1,090623,000.0,W*6B
$GPGGA,151102.002,4355.356,N,07926.771,W,1,12,1.0,0.0,M,0.0,M,,*74
$GPGSA,A,3,01,02,03,04,05,06,07,08,09,10,11,12,1.0,1.0,1.0*30
$GPRMC,151102.002,A,4355.356,N,07926.771,W,000.0,070.1,090623,000.0,W*68
$GPGGA,151103.002,4355.356,N,07926.771,W,1,12,1.0,0.0,M,0.0,M,,*75
$GPGSA,A,3,01,02,03,04,05,06,07,08,09,10,11,12,1.0,1.0,1.0*30
$GPRMC,151103.002,A,4355.356,N,07926.771,W,000.0,070.1,090623,000.0,W*69
$GPGGA,151104.002,4355.356,N,07926.771,W,1,12,1.0,0.0,M,0.0,M,,*72
$GPGSA,A,3,01,02,03,04,05,06,07,08,09,10,11,12,1.0,1.0,1.0*30
$GPRMC,151104.002,A,4355.356,N,07926.771,W,000.0,070.1,090623,000.0,W*6E
$GPGGA,151105.002,4355.356,N,07926.771,W,1,12,1.0,0.0,M,0.0,M,,*73
$GPGSA,A,3,01,02,03,04,05,06,07,08,09,10,11,12,1.0,1.0,1.0*30
$GPRMC,151105.002,A,4355.356,N,07926.771,W,000.0,070.1,090623,000.0,W*6F
$GPGGA,151106.002,4355.356,N,07926.771,W,1,12,1.0,0.0,M,0.0,M,,*70
$GPGSA,A,3,01,02,03,04,05,06,07,08,09,10,11,12,1.0,1.0,1.0*30
$GPRMC,151106.002,A,4355.356,N,07926.771,W,000.0,070.1,090623,000.0,W*6C
$GPGGA,151107.002,4355.356,N,07926.771,W,1,12,1.0,0.0,M,0.0,M,,*71
$GPGSA,A,3,01,02,03,04,05,06,07,08,09,10,11,12,1.0,1.0,1.0*30
$GPRMC,151107.002,A,4355.356,N,07926.771,W,000.0,070.1,090623,000.0,W*6D
$GPGGA,151108.002,4355.356,N,07926.771,W,1,12,1.0,0.0,M,0.0,M,,*7E
$GPGSA,A,3,01,02,03,04,05,06,07,08,09,10,11,12,1.0,1.0,1.0*30
$GPRMC,151108.002,A,4355.356,N,07926.771,W,000.0,070.1,090623,000.0,W*62
$GPGGA,151109.002,4355.356,N,07926.771,W,1,12,1.0,0.0,M,0.0,M,,*7F
$GPGSA,A,3,01,02,03,04,05,06,07,08,09,10,11,12,1.0,1.0,1.0*30
$GPRMC,151109.002,A,4355.356,N,07926.771,W,000.0,070.1,090623,000.0,W*63
$GPGGA,151110.002,4355.356,N,07926.771,W,1,12,1.0,0.0,M,0.0,M,,*77
$GPGSA,A,3,01,02,03,04,05,06,07,08,09,10,11,12,1.0,1.0,1.0*30
$GPRMC,151110.002,A,4355.356,N,07926.771,W,000.0,070.1,090623,000.0,W*6B
$GPGGA,151111.002,4355.356,N,07926.771,W,1,12,1.0,0.0,M,0.0,M,,*76
$GPGSA,A,3,01,02,03,04,05,06,07,08,09,10,11,12,1.0,1.0,1.0*30
$GPRMC,151111.002,A,4355.356,N,07926.771,W,000.0,070.1,090623,000.0,W*6A
$GPGGA,151112.002,4355.356,N,07926.771,W,1,12,1.0,0.0,M,0.0,M,,*75
$GPGSA,A,3,01,02,03,04,05,06,07,08,09,10,11,12,1.0,1.0,1.0*30
$GPRMC,151112.002,A,4355.356,N,07926.771,W,000.0,070.1,090623,000.0,W*69
$GPGGA,151113.002,4355.356,N,07926.771,W,1,12,1.0,0.0,M,0.0,M,,*74
$GPGSA,A,3,01,02,03,04,05,06,07,08,09,10,11,12,1.0,1.0,1.0*30
$GPRMC,151113.002,A,4355.356,N,07926.771,W,000.0,070.1,090623,000.0,W*68
$GPGGA,151114.002,4355.356,N,07926.771,W,1,12,1.0,0.0,M,0.0,M,,*73
$GPGSA,A,3,01,02,03,04,05,06,07,08,09,10,11,12,1.0,1.0,1.0*30
$GPRMC,151114.002,A,4355.356,N,07926.771,W,000.0,070.1,090623,000.0,W*6F
$GPGGA,151115.002,4355.356,N,07926.771,W,1,12,1.0,0.0,M,0.0,M,,*72
$GPGSA,A,3,01,02,03,04,05,06,07,08,09,10,11,12,1.0,1.0,1.0*30
$GPRMC,151115.002,A,4355.356,N,07926.771,W,000.0,070.1,090623,000.0,W*6E
$GPGGA,151116.002,4355.356,N,07926.771,W,1,12,1.0,0.0,M,0.0,M,,*71
$GPGSA,A,3,01,02,03,04,05,06,07,08,09,10,11,12,1.0,1.0,1.0*30
$GPRMC,151116.002,A,4355.356,N,07926.771,W,000.0,070.1,090623,000.0,W*6D
$GPGGA,151117.002,4355.356,N,07926.771,W,1,12,1.0,0.0,M,0.0,M,,*70
$GPGSA,A,3,01,02,03,04,05,06,07,08,09,10,11,12,1.0,1.0,1.0*30
$GPRMC,151117.002,A,4355.356,N,07926.771,W,000.0,070.1,090623,000.0,W*6C
$GPGGA,151118.002,4355.356,N,07926.771,W,1,12,1.0,0.0,M,0.0,M,,*7F
$GPGSA,A,3,01,02,03,04,05,06,07,08,09,10,11,12,1.0,1.0,1.0*30
$GPRMC,151118.002,A,4355.356,N,07926.771,W,000.0,070.1,090623,000.0,W*63
$GPGGA,151119.002,4355.356,N,07926.771,W,1,12,1.0,0.0,M,0.0,M,,*7E
$GPGSA,A,3,01,02,03,04,05,06,07,08,09,10,11,12,1.0,1.0,1.0*30
$GPRMC,151119.002,A,4355.356,N,07926.771,W,000.0,070.1,090623,000.0,W*62
$GPGGA,151120.002,4355.356,N,07926.771,W,1,12,1.0,0.0,M,0.0,M,,*74
$GPGSA,A,3,01,02,03,04,05,06,07,08,09,10,11,12,1.0,1.0,1.0*30
$GPRMC,151120.002,A,4355.356,N,07926.771,W,000.0,070.1,090623,000.0,W*68
$GPGGA,151121.002,4355.356,N,07926.771,W,1,12,1.0,0.0,M,0.0,M,,*75
$GPGSA,A,3,01,02,03,04,05,06,07,08,09,10,11,12,1.0,1.0,1.0*30
$GPRMC,151121.002,A,4355.356,N,07926.771,W,000.0,070.1,090623,000.0,W*69
$GPGGA,151122.002,4355.356,N,07926.771,W,1,12,1.0,0.0,M,0.0,M,,*76
$GPGSA,A,3,01,02,03,04,05,06,07,08,09,10,11,12,1.0,1.0,1.0*30
$GPRMC,151122.002,A,4355.356,N,07926.771,W,000.0,070.1,090623,000.0,W*6A
$GPGGA,151123.002,4355.356,N,07926.771,W,1,12,1.0,0.0,M,0.0,M,,*77
$GPGSA,A,3,01,02,03,04,05,06,07,08,09,10,11,12,1.0,1.0,1.0*30
$GPRMC,151123.002,A,4355.356,N,07926.771,W,000.0,070.1,090623,000.0,W*6B
$GPGGA,151124.002,4355.356,N,07926.771,W,1,12,1.0,0.0,M,0.0,M,,*70
$GPGSA,A,3,01,02,03,04,05,06,07,08,09,10,11,12,1.0,1.0,1.0*30
$GPRMC,151124.002,A,4355.356,N,07926.771,W,000.0,070.1,090623,000.0,W*6C
$GPGGA,151125.002,4355.356,N,07926.771,W,1,12,1.0,0.0,M,0.0,M,,*71
$GPGSA,A,3,01,02,03,04,05,06,07,08,09,10,11,12,1.0,1.0,1.0*30
$GPRMC,151125.002,A,4355.356,N,07926.771,W,000.0,070.1,090623,000.0,W*6D
$GPGGA,151126.002,4355.356,N,07926.771,W,1,12,1.0,0.0,M,0.0,M,,*72
$GPGSA,A,3,01,02,03,04,05,06,07,08,09,10,11,12,1.0,1.0,1.0*30
$GPRMC,151126.002,A,4355.356,N,07926.771,W,000.0,070.1,090623,000.0,W*6E
$GPGGA,151127.002,4355.356,N,07926.771,W,1,12,1.0,0.0,M,0.0,M,,*73
$GPGSA,A,3,01,02,03,04,05,06,07,08,09,10,11,12,1.0,1.0,1.0*30
$GPRMC,151127.002,A,4355.356,N,07926.771,W,000.0,070.1,090623,000.0,W*6F
$GPGGA,151128.002,4355.356,N,07926.771,W,1,12,1.0,0.0,M,0.0,M,,*7C
$GPGSA,A,3,01,02,03,04,05,06,07,08,09,10,11,12,1.0,1.0,1.0*30
$GPRMC,151128.002,A,4355.356,N,07926.771,W,000.0,070.1,090623,000.0,W*60
