$GPGGA,013941.089,4355.456,N,07926.659,W,1,12,1.0,0.0,M,0.0,M,,*73
$GPGSA,A,3,01,02,03,04,05,06,07,08,09,10,11,12,1.0,1.0,1.0*30
$GPRMC,013941.089,A,4355.456,N,07926.659,W,001.7,270.0,090623,000.0,W*6A
$GPGGA,013942.089,4355.456,N,07926.660,W,1,12,1.0,0.0,M,0.0,M,,*7A
$GPGSA,A,3,01,02,03,04,05,06,07,08,09,10,11,12,1.0,1.0,1.0*30
$GPRMC,013942.089,A,4355.456,N,07926.660,W,005.3,076.5,090623,000.0,W*62
$GPGGA,013943.089,4355.456,N,07926.658,W,1,12,1.0,0.0,M,0.0,M,,*70
$GPGSA,A,3,01,02,03,04,05,06,07,08,09,10,11,12,1.0,1.0,1.0*30
$GPRMC,013943.089,A,4355.456,N,07926.658,W,005.3,000.0,090623,000.0,W*6C
$GPGGA,013944.089,4355.456,N,07926.658,W,1,12,1.0,0.0,M,0.0,M,,*77
$GPGSA,A,3,01,02,03,04,05,06,07,08,09,10,11,12,1.0,1.0,1.0*30
$GPRMC,013944.089,A,4355.456,N,07926.658,W,000.0,000.0,090623,000.0,W*6D
$GPGGA,013945.089,4355.456,N,07926.658,W,1,12,1.0,0.0,M,0.0,M,,*76
$GPGSA,A,3,01,02,03,04,05,06,07,08,09,10,11,12,1.0,1.0,1.0*30
$GPRMC,013945.089,A,4355.456,N,07926.658,W,000.0,000.0,090623,000.0,W*6C
$GPGGA,013946.089,4355.456,N,07926.658,W,1,12,1.0,0.0,M,0.0,M,,*75
$GPGSA,A,3,01,02,03,04,05,06,07,08,09,10,11,12,1.0,1.0,1.0*30
$GPRMC,013946.089,A,4355.456,N,07926.658,W,000.0,000.0,090623,000.0,W*6F
$GPGGA,013947.089,4355.456,N,07926.658,W,1,12,1.0,0.0,M,0.0,M,,*74
$GPGSA,A,3,01,02,03,04,05,06,07,08,09,10,11,12,1.0,1.0,1.0*30
$GPRMC,013947.089,A,4355.456,N,07926.658,W,000.0,000.0,090623,000.0,W*6E
$GPGGA,013948.089,4355.456,N,07926.658,W,1,12,1.0,0.0,M,0.0,M,,*7B
$GPGSA,A,3,01,02,03,04,05,06,07,08,09,10,11,12,1.0,1.0,1.0*30
$GPRMC,013948.089,A,4355.456,N,07926.658,W,000.0,000.0,090623,000.0,W*61
$GPGGA,013949.089,4355.456,N,07926.658,W,1,12,1.0,0.0,M,0.0,M,,*7A
$GPGSA,A,3,01,02,03,04,05,06,07,08,09,10,11,12,1.0,1.0,1.0*30
$GPRMC,013949.089,A,4355.456,N,07926.658,W,000.0,000.0,090623,000.0,W*60
$GPGGA,013950.089,4355.456,N,07926.658,W,1,12,1.0,0.0,M,0.0,M,,*72
$GPGSA,A,3,01,02,03,04,05,06,07,08,09,10,11,12,1.0,1.0,1.0*30
$GPRMC,013950.089,A,4355.456,N,07926.658,W,000.0,000.0,090623,000.0,W*68
$GPGGA,013951.089,4355.456,N,07926.658,W,1,12,1.0,0.0,M,0.0,M,,*73
$GPGSA,A,3,01,02,03,04,05,06,07,08,09,10,11,12,1.0,1.0,1.0*30
$GPRMC,013951.089,A,4355.456,N,07926.658,W,000.0,000.0,090623,000.0,W*69
$GPGGA,013952.089,4355.456,N,07926.658,W,1,12,1.0,0.0,M,0.0,M,,*70
$GPGSA,A,3,01,02,03,04,05,06,07,08,09,10,11,12,1.0,1.0,1.0*30
$GPRMC,013952.089,A,4355.456,N,07926.658,W,000.0,000.0,090623,000.0,W*6A
$GPGGA,013953.089,4355.456,N,07926.658,W,1,12,1.0,0.0,M,0.0,M,,*71
$GPGSA,A,3,01,02,03,04,05,06,07,08,09,10,11,12,1.0,1.0,1.0*30
$GPRMC,013953.089,A,4355.456,N,07926.658,W,000.0,000.0,090623,000.0,W*6B
$GPGGA,013954.089,4355.456,N,07926.658,W,1,12,1.0,0.0,M,0.0,M,,*76
$GPGSA,A,3,01,02,03,04,05,06,07,08,09,10,11,12,1.0,1.0,1.0*30
$GPRMC,013954.089,A,4355.456,N,07926.658,W,000.0,000.0,090623,000.0,W*6C
$GPGGA,013955.089,4355.456,N,07926.658,W,1,12,1.0,0.0,M,0.0,M,,*77
$GPGSA,A,3,01,02,03,04,05,06,07,08,09,10,11,12,1.0,1.0,1.0*30
$GPRMC,013955.089,A,4355.456,N,07926.658,W,000.0,000.0,090623,000.0,W*6D
$GPGGA,013956.089,4355.456,N,07926.658,W,1,12,1.0,0.0,M,0.0,M,,*74
$GPGSA,A,3,01,02,03,04,05,06,07,08,09,10,11,12,1.0,1.0,1.0*30
$GPRMC,013956.089,A,4355.456,N,07926.658,W,000.0,000.0,090623,000.0,W*6E
$GPGGA,013957.089,4355.456,N,07926.658,W,1,12,1.0,0.0,M,0.0,M,,*75
$GPGSA,A,3,01,02,03,04,05,06,07,08,09,10,11,12,1.0,1.0,1.0*30
$GPRMC,013957.089,A,4355.456,N,07926.658,W,000.0,000.0,090623,000.0,W*6F
$GPGGA,013958.089,4355.456,N,07926.658,W,1,12,1.0,0.0,M,0.0,M,,*7A
$GPGSA,A,3,01,02,03,04,05,06,07,08,09,10,11,12,1.0,1.0,1.0*30
$GPRMC,013958.089,A,4355.456,N,07926.658,W,000.0,000.0,090623,000.0,W*60
$GPGGA,013959.089,4355.456,N,07926.658,W,1,12,1.0,0.0,M,0.0,M,,*7B
$GPGSA,A,3,01,02,03,04,05,06,07,08,09,10,11,12,1.0,1.0,1.0*30
$GPRMC,013959.089,A,4355.456,N,07926.658,W,000.0,000.0,090623,000.0,W*61
$GPGGA,014000.089,4355.456,N,07926.658,W,1,12,1.0,0.0,M,0.0,M,,*79
$GPGSA,A,3,01,02,03,04,05,06,07,08,09,10,11,12,1.0,1.0,1.0*30
$GPRMC,014000.089,A,4355.456,N,07926.658,W,000.0,000.0,090623,000.0,W*63
$GPGGA,014001.089,4355.456,N,07926.658,W,1,12,1.0,0.0,M,0.0,M,,*78
$GPGSA,A,3,01,02,03,04,05,06,07,08,09,10,11,12,1.0,1.0,1.0*30
$GPRMC,014001.089,A,4355.456,N,07926.658,W,000.0,000.0,090623,000.0,W*62
$GPGGA,014002.089,4355.456,N,07926.658,W,1,12,1.0,0.0,M,0.0,M,,*7B
$GPGSA,A,3,01,02,03,04,05,06,07,08,09,10,11,12,1.0,1.0,1.0*30
$GPRMC,014002.089,A,4355.456,N,07926.658,W,000.0,000.0,090623,000.0,W*61
$GPGGA,014003.089,4355.456,N,07926.658,W,1,12,1.0,0.0,M,0.0,M,,*7A
$GPGSA,A,3,01,02,03,04,05,06,07,08,09,10,11,12,1.0,1.0,1.0*30
$GPRMC,014003.089,A,4355.456,N,07926.658,W,000.0,000.0,090623,000.0,W*60
$GPGGA,014004.089,4355.456,N,07926.658,W,1,12,1.0,0.0,M,0.0,M,,*7D
$GPGSA,A,3,01,02,03,04,05,06,07,08,09,10,11,12,1.0,1.0,1.0*30
$GPRMC,014004.089,A,4355.456,N,07926.658,W,000.0,000.0,090623,000.0,W*67
$GPGGA,014005.089,4355.456,N,07926.658,W,1,12,1.0,0.0,M,0.0,M,,*7C
$GPGSA,A,3,01,02,03,04,05,06,07,08,09,10,11,12,1.0,1.0,1.0*30
$GPRMC,014005.089,A,4355.456,N,07926.658,W,000.0,000.0,090623,000.0,W*66
$GPGGA,014006.089,4355.456,N,07926.658,W,1,12,1.0,0.0,M,0.0,M,,*7F
$GPGSA,A,3,01,02,03,04,05,06,07,08,09,10,11,12,1.0,1.0,1.0*30
$GPRMC,014006.089,A,4355.456,N,07926.658,W,000.0,000.0,090623,000.0,W*65
$GPGGA,014007.089,4355.456,N,07926.658,W,1,12,1.0,0.0,M,0.0,M,,*7E
$GPGSA,A,3,01,02,03,04,05,06,07,08,09,10,11,12,1.0,1.0,1.0*30
$GPRMC,014007.089,A,4355.456,N,07926.658,W,000.0,000.0,090623,000.0,W*64
$GPGGA,014008.089,4355.456,N,07926.658,W,1,12,1.0,0.0,M,0.0,M,,*71
$GPGSA,A,3,01,02,03,04,05,06,07,08,09,10,11,12,1.0,1.0,1.0*30
$GPRMC,014008.089,A,4355.456,N,07926.658,W,000.0,000.0,090623,000.0,W*6B
$GPGGA,014009.089,4355.456,N,07926.658,W,1,12,1.0,0.0,M,0.0,M,,*70
$GPGSA,A,3,01,02,03,04,05,06,07,08,09,10,11,12,1.0,1.0,1.0*30
$GPRMC,014009.089,A,4355.456,N,07926.658,W,000.0,000.0,090623,000.0,W*6A
$GPGGA,014010.089,4355.456,N,07926.658,W,1,12,1.0,0.0,M,0.0,M,,*78
$GPGSA,A,3,01,02,03,04,05,06,07,08,09,10,11,12,1.0,1.0,1.0*30
$GPRMC,014010.089,A,4355.456,N,07926.658,W,000.0,000.0,090623,000.0,W*62
$GPGGA,014011.089,4355.456,N,07926.658,W,1,12,1.0,0.0,M,0.0,M,,*79
$GPGSA,A,3,01,02,03,04,05,06,07,08,09,10,11,12,1.0,1.0,1.0*30
$GPRMC,014011.089,A,4355.456,N,07926.658,W,000.0,000.0,090623,000.0,W*63
$GPGGA,014012.089,4355.456,N,07926.658,W,1,12,1.0,0.0,M,0.0,M,,*7A
$GPGSA,A,3,01,02,03,04,05,06,07,08,09,10,11,12,1.0,1.0,1.0*30
$GPRMC,014012.089,A,4355.456,N,07926.658,W,000.0,000.0,090623,000.0,W*60
$GPGGA,014013.089,4355.456,N,07926.658,W,1,12,1.0,0.0,M,0.0,M,,*7B
$GPGSA,A,3,01,02,03,04,05,06,07,08,09,10,11,12,1.0,1.0,1.0*30
$GPRMC,014013.089,A,4355.456,N,07926.658,W,000.2,078.1,090623,000.0,W*6D
$GPGGA,014014.089,4355.456,N,07926.658,W,1,12,1.0,0.0,M,0.0,M,,*7C
$GPGSA,A,3,01,02,03,04,05,06,07,08,09,10,11,12,1.0,1.0,1.0*30
$GPRMC,014014.089,A,4355.456,N,07926.658,W,000.2,078.1,090623,000.0,W*6A
$GPGGA,014015.089,4355.456,N,07926.658,W,1,12,1.0,0.0,M,0.0,M,,*7D
$GPGSA,A,3,01,02,03,04,05,06,07,08,09,10,11,12,1.0,1.0,1.0*30
$GPRMC,014015.089,A,4355.456,N,07926.658,W,000.2,078.1,090623,000.0,W*6B
$GPGGA,014016.089,4355.456,N,07926.657,W,1,12,1.0,0.0,M,0.0,M,,*71
$GPGSA,A,3,01,02,03,04,05,06,07,08,09,10,11,12,1.0,1.0,1.0*30
$GPRMC,014016.089,A,4355.456,N,07926.657,W,000.2,078.1,090623,000.0,W*67
$GPGGA,014017.089,4355.456,N,07926.657,W,1,12,1.0,0.0,M,0.0,M,,*70
$GPGSA,A,3,01,02,03,04,05,06,07,08,09,10,11,12,1.0,1.0,1.0*30
$GPRMC,014017.089,A,4355.456,N,07926.657,W,000.2,078.1,090623,000.0,W*66
$GPGGA,014018.089,4355.456,N,07926.657,W,1,12,1.0,0.0,M,0.0,M,,*7F
$GPGSA,A,3,01,02,03,04,05,06,07,08,09,10,11,12,1.0,1.0,1.0*30
$GPRMC,014018.089,A,4355.456,N,07926.657,W,000.2,078.1,090623,000.0,W*69
$GPGGA,014019.089,4355.456,N,07926.657,W,1,12,1.0,0.0,M,0.0,M,,*7E
$GPGSA,A,3,01,02,03,04,05,06,07,08,09,10,11,12,1.0,1.0,1.0*30
$GPRMC,014019.089,A,4355.456,N,07926.657,W,000.2,078.1,090623,000.0,W*68
$GPGGA,014020.089,4355.456,N,07926.657,W,1,12,1.0,0.0,M,0.0,M,,*74
$GPGSA,A,3,01,02,03,04,05,06,07,08,09,10,11,12,1.0,1.0,1.0*30
$GPRMC,014020.089,A,4355.456,N,07926.657,W,000.2,078.1,090623,000.0,W*62
$GPGGA,014021.089,4355.456,N,07926.657,W,1,12,1.0,0.0,M,0.0,M,,*75
$GPGSA,A,3,01,02,03,04,05,06,07,08,09,10,11,12,1.0,1.0,1.0*30
$GPRMC,014021.089,A,4355.456,N,07926.657,W,000.2,078.1,090623,000.0,W*63
$GPGGA,014022.089,4355.456,N,07926.657,W,1,12,1.0,0.0,M,0.0,M,,*76
$GPGSA,A,3,01,02,03,04,05,06,07,08,09,10,11,12,1.0,1.0,1.0*30
$GPRMC,014022.089,A,4355.456,N,07926.657,W,000.2,078.1,090623,000.0,W*60
$GPGGA,014023.089,4355.456,N,07926.657,W,1,12,1.0,0.0,M,0.0,M,,*77
$GPGSA,A,3,01,02,03,04,05,06,07,08,09,10,11,12,1.0,1.0,1.0*30
$GPRMC,014023.089,A,4355.456,N,07926.657,W,000.2,078.1,090623,000.0,W*61
$GPGGA,014024.089,4355.457,N,07926.657,W,1,12,1.0,0.0,M,0.0,M,,*71
$GPGSA,A,3,01,02,03,04,05,06,07,08,09,10,11,12,1.0,1.0,1.0*30
$GPRMC,014024.089,A,4355.457,N,07926.657,W,000.2,078.1,090623,000.0,W*67
$GPGGA,014025.089,4355.457,N,07926.657,W,1,12,1.0,0.0,M,0.0,M,,*70
$GPGSA,A,3,01,02,03,04,05,06,07,08,09,10,11,12,1.0,1.0,1.0*30
$GPRMC,014025.089,A,4355.457,N,07926.657,W,000.2,078.1,090623,000.0,W*66
$GPGGA,014026.089,4355.457,N,07926.657,W,1,12,1.0,0.0,M,0.0,M,,*73
$GPGSA,A,3,01,02,03,04,05,06,07,08,09,10,11,12,1.0,1.0,1.0*30
$GPRMC,014026.089,A,4355.457,N,07926.657,W,000.2,078.1,090623,000.0,W*65
$GPGGA,014027.089,4355.457,N,07926.657,W,1,12,1.0,0.0,M,0.0,M,,*72
$GPGSA,A,3,01,02,03,04,05,06,07,08,09,10,11,12,1.0,1.0,1.0*30
$GPRMC,014027.089,A,4355.457,N,07926.657,W,000.2,078.1,090623,000.0,W*64
$GPGGA,014028.089,4355.457,N,07926.657,W,1,12,1.0,0.0,M,0.0,M,,*7D
$GPGSA,A,3,01,02,03,04,05,06,07,08,09,10,11,12,1.0,1.0,1.0*30
$GPRMC,014028.089,A,4355.457,N,07926.657,W,000.2,078.1,090623,000.0,W*6B
$GPGGA,014029.089,4355.457,N,07926.657,W,1,12,1.0,0.0,M,0.0,M,,*7C
$GPGSA,A,3,01,02,03,04,05,06,07,08,09,10,11,12,1.0,1.0,1.0*30
$GPRMC,014029.089,A,4355.457,N,07926.657,W,000.2,078.1,090623,000.0,W*6A
$GPGGA,014030.089,4355.457,N,07926.656,W,1,12,1.0,0.0,M,0.0,M,,*75
$GPGSA,A,3,01,02,03,04,05,06,07,08,09,10,11,12,1.0,1.0,1.0*30
$GPRMC,014030.089,A,4355.457,N,07926.656,W,000.2,078.1,090623,000.0,W*63
$GPGGA,014031.089,4355.457,N,07926.656,W,1,12,1.0,0.0,M,0.0,M,,*74
$GPGSA,A,3,01,02,03,04,05,06,07,08,09,10,11,12,1.0,1.0,1.0*30
$GPRMC,014031.089,A,4355.457,N,07926.656,W,000.2,078.1,090623,000.0,W*62
$GPGGA,014032.089,4355.457,N,07926.656,W,1,12,1.0,0.0,M,0.0,M,,*77
$GPGSA,A,3,01,02,03,04,05,06,07,08,09,10,11,12,1.0,1.0,1.0*30
$GPRMC,014032.089,A,4355.457,N,07926.656,W,000.2,078.1,090623,000.0,W*61
$GPGGA,014033.089,4355.457,N,07926.656,W,1,12,1.0,0.0,M,0.0,M,,*76
$GPGSA,A,3,01,02,03,04,05,06,07,08,09,10,11,12,1.0,1.0,1.0*30
$GPRMC,014033.089,A,4355.457,N,07926.656,W,000.2,078.1,090623,000.0,W*60
$GPGGA,014034.089,4355.457,N,07926.656,W,1,12,1.0,0.0,M,0.0,M,,*71
$GPGSA,A,3,01,02,03,04,05,06,07,08,09,10,11,12,1.0,1.0,1.0*30
$GPRMC,014034.089,A,4355.457,N,07926.656,W,000.2,078.1,090623,000.0,W*67
$GPGGA,014035.089,4355.457,N,07926.656,W,1,12,1.0,0.0,M,0.0,M,,*70
$GPGSA,A,3,01,02,03,04,05,06,07,08,09,10,11,12,1.0,1.0,1.0*30
$GPRMC,014035.089,A,4355.457,N,07926.656,W,000.2,078.1,090623,000.0,W*66
$GPGGA,014036.089,4355.457,N,07926.656,W,1,12,1.0,0.0,M,0.0,M,,*73
$GPGSA,A,3,01,02,03,04,05,06,07,08,09,10,11,12,1.0,1.0,1.0*30
$GPRMC,014036.089,A,4355.457,N,07926.656,W,000.2,078.1,090623,000.0,W*65
$GPGGA,014037.089,4355.457,N,07926.656,W,1,12,1.0,0.0,M,0.0,M,,*72
$GPGSA,A,3,01,02,03,04,05,06,07,08,09,10,11,12,1.0,1.0,1.0*30
$GPRMC,014037.089,A,4355.457,N,07926.656,W,000.2,078.1,090623,000.0,W*64
$GPGGA,014038.089,4355.457,N,07926.656,W,1,12,1.0,0.0,M,0.0,M,,*7D
$GPGSA,A,3,01,02,03,04,05,06,07,08,09,10,11,12,1.0,1.0,1.0*30
$GPRMC,014038.089,A,4355.457,N,07926.656,W,000.2,078.1,090623,000.0,W*6B
$GPGGA,014039.089,4355.457,N,07926.656,W,1,12,1.0,0.0,M,0.0,M,,*7C
$GPGSA,A,3,01,02,03,04,05,06,07,08,09,10,11,12,1.0,1.0,1.0*30
$GPRMC,014039.089,A,4355.457,N,07926.656,W,000.2,078.1,090623,000.0,W*6A
$GPGGA,014040.089,4355.457,N,07926.656,W,1,12,1.0,0.0,M,0.0,M,,*72
$GPGSA,A,3,01,02,03,04,05,06,07,08,09,10,11,12,1.0,1.0,1.0*30
$GPRMC,014040.089,A,4355.457,N,07926.656,W,000.2,078.1,090623,000.0,W*64
$GPGGA,014041.089,4355.457,N,07926.656,W,1,12,1.0,0.0,M,0.0,M,,*73
$GPGSA,A,3,01,02,03,04,05,06,07,08,09,10,11,12,1.0,1.0,1.0*30
$GPRMC,014041.089,A,4355.457,N,07926.656,W,000.2,078.1,090623,000.0,W*65
$GPGGA,014042.089,4355.457,N,07926.656,W,1,12,1.0,0.0,M,0.0,M,,*70
$GPGSA,A,3,01,02,03,04,05,06,07,08,09,10,11,12,1.0,1.0,1.0*30
$GPRMC,014042.089,A,4355.457,N,07926.656,W,000.2,078.1,090623,000.0,W*66
$GPGGA,014043.089,4355.457,N,07926.656,W,1,12,1.0,0.0,M,0.0,M,,*71
$GPGSA,A,3,01,02,03,04,05,06,07,08,09,10,11,12,1.0,1.0,1.0*30
$GPRMC,014043.089,A,4355.457,N,07926.656,W,000.2,078.1,090623,000.0,W*67
$GPGGA,014044.089,4355.457,N,07926.655,W,1,12,1.0,0.0,M,0.0,M,,*75
$GPGSA,A,3,01,02,03,04,05,06,07,08,09,10,11,12,1.0,1.0,1.0*30
$GPRMC,014044.089,A,4355.457,N,07926.655,W,000.2,078.1,090623,000.0,W*63
$GPGGA,014045.089,4355.457,N,07926.655,W,1,12,1.0,0.0,M,0.0,M,,*74
$GPGSA,A,3,01,02,03,04,05,06,07,08,09,10,11,12,1.0,1.0,1.0*30
$GPRMC,014045.089,A,4355.457,N,07926.655,W,000.2,078.1,090623,000.0,W*62
$GPGGA,014046.089,4355.457,N,07926.655,W,1,12,1.0,0.0,M,0.0,M,,*77
$GPGSA,A,3,01,02,03,04,05,06,07,08,09,10,11,12,1.0,1.0,1.0*30
$GPRMC,014046.089,A,4355.457,N,07926.655,W,000.2,078.1,090623,000.0,W*61
$GPGGA,014047.089,4355.457,N,07926.655,W,1,12,1.0,0.0,M,0.0,M,,*76
$GPGSA,A,3,01,02,03,04,05,06,07,08,09,10,11,12,1.0,1.0,1.0*30
$GPRMC,014047.089,A,4355.457,N,07926.655,W,000.2,078.1,090623,000.0,W*60
$GPGGA,014048.089,4355.457,N,07926.655,W,1,12,1.0,0.0,M,0.0,M,,*79
$GPGSA,A,3,01,02,03,04,05,06,07,08,09,10,11,12,1.0,1.0,1.0*30
$GPRMC,014048.089,A,4355.457,N,07926.655,W,000.2,078.1,090623,000.0,W*6F
$GPGGA,014049.089,4355.457,N,07926.655,W,1,12,1.0,0.0,M,0.0,M,,*78
$GPGSA,A,3,01,02,03,04,05,06,07,08,09,10,11,12,1.0,1.0,1.0*30
$GPRMC,014049.089,A,4355.457,N,07926.655,W,000.2,078.1,090623,000.0,W*6E
$GPGGA,014050.089,4355.457,N,07926.655,W,1,12,1.0,0.0,M,0.0,M,,*70
$GPGSA,A,3,01,02,03,04,05,06,07,08,09,10,11,12,1.0,1.0,1.0*30
$GPRMC,014050.089,A,4355.457,N,07926.655,W,000.2,078.1,090623,000.0,W*66
$GPGGA,014051.089,4355.457,N,07926.655,W,1,12,1.0,0.0,M,0.0,M,,*71
$GPGSA,A,3,01,02,03,04,05,06,07,08,09,10,11,12,1.0,1.0,1.0*30
$GPRMC,014051.089,A,4355.457,N,07926.655,W,000.2,078.1,090623,000.0,W*67
$GPGGA,014052.089,4355.457,N,07926.655,W,1,12,1.0,0.0,M,0.0,M,,*72
$GPGSA,A,3,01,02,03,04,05,06,07,08,09,10,11,12,1.0,1.0,1.0*30
$GPRMC,014052.089,A,4355.457,N,07926.655,W,000.2,078.1,090623,000.0,W*64
$GPGGA,014053.089,4355.457,N,07926.655,W,1,12,1.0,0.0,M,0.0,M,,*73
$GPGSA,A,3,01,02,03,04,05,06,07,08,09,10,11,12,1.0,1.0,1.0*30
$GPRMC,014053.089,A,4355.457,N,07926.655,W,000.2,078.1,090623,000.0,W*65
$GPGGA,014054.089,4355.457,N,07926.655,W,1,12,1.0,0.0,M,0.0,M,,*74
$GPGSA,A,3,01,02,03,04,05,06,07,08,09,10,11,12,1.0,1.0,1.0*30
$GPRMC,014054.089,A,4355.457,N,07926.655,W,000.2,078.1,090623,000.0,W*62
$GPGGA,014055.089,4355.457,N,07926.655,W,1,12,1.0,0.0,M,0.0,M,,*75
$GPGSA,A,3,01,02,03,04,05,06,07,08,09,10,11,12,1.0,1.0,1.0*30
$GPRMC,014055.089,A,4355.457,N,07926.655,W,000.2,078.1,090623,000.0,W*63
$GPGGA,014056.089,4355.457,N,07926.655,W,1,12,1.0,0.0,M,0.0,M,,*76
$GPGSA,A,3,01,02,03,04,05,06,07,08,09,10,11,12,1.0,1.0,1.0*30
$GPRMC,014056.089,A,4355.457,N,07926.655,W,000.2,078.1,090623,000.0,W*60
$GPGGA,014057.089,4355.457,N,07926.655,W,1,12,1.0,0.0,M,0.0,M,,*77
$GPGSA,A,3,01,02,03,04,05,06,07,08,09,10,11,12,1.0,1.0,1.0*30
$GPRMC,014057.089,A,4355.457,N,07926.655,W,000.2,078.1,090623,000.0,W*61
$GPGGA,014058.089,4355.457,N,07926.654,W,1,12,1.0,0.0,M,0.0,M,,*79
$GPGSA,A,3,01,02,03,04,05,06,07,08,09,10,11,12,1.0,1.0,1.0*30
$GPRMC,014058.089,A,4355.457,N,07926.654,W,000.2,078.1,090623,000.0,W*6F
$GPGGA,014059.089,4355.457,N,07926.654,W,1,12,1.0,0.0,M,0.0,M,,*78
$GPGSA,A,3,01,02,03,04,05,06,07,08,09,10,11,12,1.0,1.0,1.0*30
$GPRMC,014059.089,A,4355.457,N,07926.654,W,000.2,078.1,090623,000.0,W*6E
$GPGGA,014100.089,4355.457,N,07926.654,W,1,12,1.0,0.0,M,0.0,M,,*75
$GPGSA,A,3,01,02,03,04,05,06,07,08,09,10,11,12,1.0,1.0,1.0*30
$GPRMC,014100.089,A,4355.457,N,07926.654,W,000.2,078.1,090623,000.0,W*63
$GPGGA,014101.089,4355.457,N,07926.654,W,1,12,1.0,0.0,M,0.0,M,,*74
$GPGSA,A,3,01,02,03,04,05,06,07,08,09,10,11,12,1.0,1.0,1.0*30
$GPRMC,014101.089,A,4355.457,N,07926.654,W,000.2,078.1,090623,000.0,W*62
$GPGGA,014102.089,4355.457,N,07926.654,W,1,12,1.0,0.0,M,0.0,M,,*77
$GPGSA,A,3,01,02,03,04,05,06,07,08,09,10,11,12,1.0,1.0,1.0*30
$GPRMC,014102.089,A,4355.457,N,07926.654,W,000.2,078.1,090623,000.0,W*61
$GPGGA,014103.089,4355.457,N,07926.654,W,1,12,1.0,0.0,M,0.0,M,,*76
$GPGSA,A,3,01,02,03,04,05,06,07,08,09,10,11,12,1.0,1.0,1.0*30
$GPRMC,014103.089,A,4355.457,N,07926.654,W,000.2,078.1,090623,000.0,W*60
$GPGGA,014104.089,4355.457,N,07926.654,W,1,12,1.0,0.0,M,0.0,M,,*71
$GPGSA,A,3,01,02,03,04,05,06,07,08,09,10,11,12,1.0,1.0,1.0*30
$GPRMC,014104.089,A,4355.457,N,07926.654,W,000.2,078.1,090623,000.0,W*67
$GPGGA,014105.089,4355.457,N,07926.654,W,1,12,1.0,0.0,M,0.0,M,,*70
$GPGSA,A,3,01,02,03,04,05,06,07,08,09,10,11,12,1.0,1.0,1.0*30
$GPRMC,014105.089,A,4355.457,N,07926.654,W,000.2,078.1,090623,000.0,W*66
$GPGGA,014106.089,4355.457,N,07926.654,W,1,12,1.0,0.0,M,0.0,M,,*73
$GPGSA,A,3,01,02,03,04,05,06,07,08,09,10,11,12,1.0,1.0,1.0*30
$GPRMC,014106.089,A,4355.457,N,07926.654,W,000.2,078.1,090623,000.0,W*65
$GPGGA,014107.089,4355.457,N,07926.654,W,1,12,1.0,0.0,M,0.0,M,,*72
$GPGSA,A,3,01,02,03,04,05,06,07,08,09,10,11,12,1.0,1.0,1.0*30
$GPRMC,014107.089,A,4355.457,N,07926.654,W,000.2,078.1,090623,000.0,W*64
$GPGGA,014108.089,4355.457,N,07926.654,W,1,12,1.0,0.0,M,0.0,M,,*7D
$GPGSA,A,3,01,02,03,04,05,06,07,08,09,10,11,12,1.0,1.0,1.0*30
$GPRMC,014108.089,A,4355.457,N,07926.654,W,000.2,078.1,090623,000.0,W*6B
$GPGGA,014109.089,4355.457,N,07926.654,W,1,12,1.0,0.0,M,0.0,M,,*7C
$GPGSA,A,3,01,02,03,04,05,06,07,08,09,10,11,12,1.0,1.0,1.0*30
$GPRMC,014109.089,A,4355.457,N,07926.654,W,000.2,078.1,090623,000.0,W*6A
$GPGGA,014110.089,4355.457,N,07926.654,W,1,12,1.0,0.0,M,0.0,M,,*74
$GPGSA,A,3,01,02,03,04,05,06,07,08,09,10,11,12,1.0,1.0,1.0*30
$GPRMC,014110.089,A,4355.457,N,07926.654,W,000.2,078.1,090623,000.0,W*62
$GPGGA,014111.089,4355.457,N,07926.654,W,1,12,1.0,0.0,M,0.0,M,,*75
$GPGSA,A,3,01,02,03,04,05,06,07,08,09,10,11,12,1.0,1.0,1.0*30
$GPRMC,014111.089,A,4355.457,N,07926.654,W,000.2,078.1,090623,000.0,W*63
$GPGGA,014112.089,4355.457,N,07926.653,W,1,12,1.0,0.0,M,0.0,M,,*71
$GPGSA,A,3,01,02,03,04,05,06,07,08,09,10,11,12,1.0,1.0,1.0*30
$GPRMC,014112.089,A,4355.457,N,07926.653,W,000.2,078.1,090623,000.0,W*67
$GPGGA,014113.089,4355.457,N,07926.653,W,1,12,1.0,0.0,M,0.0,M,,*70
$GPGSA,A,3,01,02,03,04,05,06,07,08,09,10,11,12,1.0,1.0,1.0*30
$GPRMC,014113.089,A,4355.457,N,07926.653,W,000.2,078.1,090623,000.0,W*66
$GPGGA,014114.089,4355.457,N,07926.653,W,1,12,1.0,0.0,M,0.0,M,,*77
$GPGSA,A,3,01,02,03,04,05,06,07,08,09,10,11,12,1.0,1.0,1.0*30
$GPRMC,014114.089,A,4355.457,N,07926.653,W,000.2,078.1,090623,000.0,W*61
$GPGGA,014115.089,4355.457,N,07926.653,W,1,12,1.0,0.0,M,0.0,M,,*76
$GPGSA,A,3,01,02,03,04,05,06,07,08,09,10,11,12,1.0,1.0,1.0*30
$GPRMC,014115.089,A,4355.457,N,07926.653,W,000.2,078.1,090623,000.0,W*60
$GPGGA,014116.089,4355.457,N,07926.653,W,1,12,1.0,0.0,M,0.0,M,,*75
$GPGSA,A,3,01,02,03,04,05,06,07,08,09,10,11,12,1.0,1.0,1.0*30
$GPRMC,014116.089,A,4355.457,N,07926.653,W,000.2,078.1,090623,000.0,W*63
$GPGGA,014117.089,4355.457,N,07926.653,W,1,12,1.0,0.0,M,0.0,M,,*74
$GPGSA,A,3,01,02,03,04,05,06,07,08,09,10,11,12,1.0,1.0,1.0*30
$GPRMC,014117.089,A,4355.457,N,07926.653,W,000.2,078.1,090623,000.0,W*62
$GPGGA,014118.089,4355.457,N,07926.653,W,1,12,1.0,0.0,M,0.0,M,,*7B
$GPGSA,A,3,01,02,03,04,05,06,07,08,09,10,11,12,1.0,1.0,1.0*30
$GPRMC,014118.089,A,4355.457,N,07926.653,W,000.2,078.1,090623,000.0,W*6D
$GPGGA,014119.089,4355.457,N,07926.653,W,1,12,1.0,0.0,M,0.0,M,,*7A
$GPGSA,A,3,01,02,03,04,05,06,07,08,09,10,11,12,1.0,1.0,1.0*30
$GPRMC,014119.089,A,4355.457,N,07926.653,W,000.2,078.1,090623,000.0,W*6C
$GPGGA,014120.089,4355.457,N,07926.653,W,1,12,1.0,0.0,M,0.0,M,,*70
$GPGSA,A,3,01,02,03,04,05,06,07,08,09,10,11,12,1.0,1.0,1.0*30
$GPRMC,014120.089,A,4355.457,N,07926.653,W,000.2,078.1,090623,000.0,W*66
$GPGGA,014121.089,4355.457,N,07926.653,W,1,12,1.0,0.0,M,0.0,M,,*71
$GPGSA,A,3,01,02,03,04,05,06,07,08,09,10,11,12,1.0,1.0,1.0*30
$GPRMC,014121.089,A,4355.457,N,07926.653,W,000.2,078.1,090623,000.0,W*67
$GPGGA,014122.089,4355.457,N,07926.653,W,1,12,1.0,0.0,M,0.0,M,,*72
$GPGSA,A,3,01,02,03,04,05,06,07,08,09,10,11,12,1.0,1.0,1.0*30
$GPRMC,014122.089,A,4355.457,N,07926.653,W,000.2,078.1,090623,000.0,W*64
$GPGGA,014123.089,4355.457,N,07926.653,W,1,12,1.0,0.0,M,0.0,M,,*73
$GPGSA,A,3,01,02,03,04,05,06,07,08,09,10,11,12,1.0,1.0,1.0*30
$GPRMC,014123.089,A,4355.457,N,07926.653,W,000.2,078.1,090623,000.0,W*65
$GPGGA,014124.089,4355.457,N,07926.653,W,1,12,1.0,0.0,M,0.0,M,,*74
$GPGSA,A,3,01,02,03,04,05,06,07,08,09,10,11,12,1.0,1.0,1.0*30
$GPRMC,014124.089,A,4355.457,N,07926.653,W,000.2,078.1,090623,000.0,W*62
$GPGGA,014125.089,4355.457,N,07926.653,W,1,12,1.0,0.0,M,0.0,M,,*75
$GPGSA,A,3,01,02,03,04,05,06,07,08,09,10,11,12,1.0,1.0,1.0*30
$GPRMC,014125.089,A,4355.457,N,07926.653,W,000.2,078.1,090623,000.0,W*63
$GPGGA,014126.089,4355.457,N,07926.652,W,1,12,1.0,0.0,M,0.0,M,,*77
$GPGSA,A,3,01,02,03,04,05,06,07,08,09,10,11,12,1.0,1.0,1.0*30
$GPRMC,014126.089,A,4355.457,N,07926.652,W,000.2,078.1,090623,000.0,W*61
$GPGGA,014127.089,4355.457,N,07926.652,W,1,12,1.0,0.0,M,0.0,M,,*76
$GPGSA,A,3,01,02,03,04,05,06,07,08,09,10,11,12,1.0,1.0,1.0*30
$GPRMC,014127.089,A,4355.457,N,07926.652,W,000.2,078.1,090623,000.0,W*60
$GPGGA,014128.089,4355.457,N,07926.652,W,1,12,1.0,0.0,M,0.0,M,,*79
$GPGSA,A,3,01,02,03,04,05,06,07,08,09,10,11,12,1.0,1.0,1.0*30
$GPRMC,014128.089,A,4355.457,N,07926.652,W,000.2,078.1,090623,000.0,W*6F
$GPGGA,014129.089,4355.457,N,07926.652,W,1,12,1.0,0.0,M,0.0,M,,*78
$GPGSA,A,3,01,02,03,04,05,06,07,08,09,10,11,12,1.0,1.0,1.0*30
$GPRMC,014129.089,A,4355.457,N,07926.652,W,000.2,078.1,090623,000.0,W*6E
$GPGGA,014130.089,4355.457,N,07926.652,W,1,12,1.0,0.0,M,0.0,M,,*70
$GPGSA,A,3,01,02,03,04,05,06,07,08,09,10,11,12,1.0,1.0,1.0*30
$GPRMC,014130.089,A,4355.457,N,07926.652,W,000.2,078.1,090623,000.0,W*66
$GPGGA,014131.089,4355.458,N,07926.652,W,1,12,1.0,0.0,M,0.0,M,,*7E
$GPGSA,A,3,01,02,03,04,05,06,07,08,09,10,11,12,1.0,1.0,1.0*30
$GPRMC,014131.089,A,4355.458,N,07926.652,W,000.2,078.1,090623,000.0,W*68
$GPGGA,014132.089,4355.458,N,07926.652,W,1,12,1.0,0.0,M,0.0,M,,*7D
$GPGSA,A,3,01,02,03,04,05,06,07,08,09,10,11,12,1.0,1.0,1.0*30
$GPRMC,014132.089,A,4355.458,N,07926.652,W,000.2,078.1,090623,000.0,W*6B
$GPGGA,014133.089,4355.458,N,07926.652,W,1,12,1.0,0.0,M,0.0,M,,*7C
$GPGSA,A,3,01,02,03,04,05,06,07,08,09,10,11,12,1.0,1.0,1.0*30
$GPRMC,014133.089,A,4355.458,N,07926.652,W,000.2,078.1,090623,000.0,W*6A
$GPGGA,014134.089,4355.458,N,07926.652,W,1,12,1.0,0.0,M,0.0,M,,*7B
$GPGSA,A,3,01,02,03,04,05,06,07,08,09,10,11,12,1.0,1.0,1.0*30
$GPRMC,014134.089,A,4355.458,N,07926.652,W,000.2,078.1,090623,000.0,W*6D
$GPGGA,014135.089,4355.458,N,07926.652,W,1,12,1.0,0.0,M,0.0,M,,*7A
$GPGSA,A,3,01,02,03,04,05,06,07,08,09,10,11,12,1.0,1.0,1.0*30
$GPRMC,014135.089,A,4355.458,N,07926.652,W,000.2,078.1,090623,000.0,W*6C
$GPGGA,014136.089,4355.458,N,07926.652,W,1,12,1.0,0.0,M,0.0,M,,*79
$GPGSA,A,3,01,02,03,04,05,06,07,08,09,10,11,12,1.0,1.0,1.0*30
$GPRMC,014136.089,A,4355.458,N,07926.652,W,000.2,078.1,090623,000.0,W*6F
$GPGGA,014137.089,4355.458,N,07926.652,W,1,12,1.0,0.0,M,0.0,M,,*78
$GPGSA,A,3,01,02,03,04,05,06,07,08,09,10,11,12,1.0,1.0,1.0*30
$GPRMC,014137.089,A,4355.458,N,07926.652,W,000.2,078.1,090623,000.0,W*6E
$GPGGA,014138.089,4355.458,N,07926.652,W,1,12,1.0,0.0,M,0.0,M,,*77
$GPGSA,A,3,01,02,03,04,05,06,07,08,09,10,11,12,1.0,1.0,1.0*30
$GPRMC,014138.089,A,4355.458,N,07926.652,W,000.2,078.1,090623,000.0,W*61
$GPGGA,014139.089,4355.458,N,07926.652,W,1,12,1.0,0.0,M,0.0,M,,*76
$GPGSA,A,3,01,02,03,04,05,06,07,08,09,10,11,12,1.0,1.0,1.0*30
$GPRMC,014139.089,A,4355.458,N,07926.652,W,000.2,078.1,090623,000.0,W*60
$GPGGA,014140.089,4355.458,N,07926.651,W,1,12,1.0,0.0,M,0.0,M,,*7B
$GPGSA,A,3,01,02,03,04,05,06,07,08,09,10,11,12,1.0,1.0,1.0*30
$GPRMC,014140.089,A,4355.458,N,07926.651,W,000.2,078.1,090623,000.0,W*6D
$GPGGA,014141.089,4355.458,N,07926.651,W,1,12,1.0,0.0,M,0.0,M,,*7A
$GPGSA,A,3,01,02,03,04,05,06,07,08,09,10,11,12,1.0,1.0,1.0*30
$GPRMC,014141.089,A,4355.458,N,07926.651,W,000.2,078.1,090623,000.0,W*6C
$GPGGA,014142.089,4355.458,N,07926.651,W,1,12,1.0,0.0,M,0.0,M,,*79
$GPGSA,A,3,01,02,03,04,05,06,07,08,09,10,11,12,1.0,1.0,1.0*30
$GPRMC,014142.089,A,4355.458,N,07926.651,W,000.2,078.1,090623,000.0,W*6F
$GPGGA,014143.089,4355.458,N,07926.651,W,1,12,1.0,0.0,M,0.0,M,,*78
$GPGSA,A,3,01,02,03,04,05,06,07,08,09,10,11,12,1.0,1.0,1.0*30
$GPRMC,014143.089,A,4355.458,N,07926.651,W,000.2,078.1,090623,000.0,W*6E
$GPGGA,014144.089,4355.458,N,07926.651,W,1,12,1.0,0.0,M,0.0,M,,*7F
$GPGSA,A,3,01,02,03,04,05,06,07,08,09,10,11,12,1.0,1.0,1.0*30
$GPRMC,014144.089,A,4355.458,N,07926.651,W,000.2,078.1,090623,000.0,W*69
$GPGGA,014145.089,4355.458,N,07926.651,W,1,12,1.0,0.0,M,0.0,M,,*7E
$GPGSA,A,3,01,02,03,04,05,06,07,08,09,10,11,12,1.0,1.0,1.0*30
$GPRMC,014145.089,A,4355.458,N,07926.651,W,000.2,078.1,090623,000.0,W*68
$GPGGA,014146.089,4355.458,N,07926.651,W,1,12,1.0,0.0,M,0.0,M,,*7D
$GPGSA,A,3,01,02,03,04,05,06,07,08,09,10,11,12,1.0,1.0,1.0*30
$GPRMC,014146.089,A,4355.458,N,07926.651,W,000.2,078.1,090623,000.0,W*6B
$GPGGA,014147.089,4355.458,N,07926.651,W,1,12,1.0,0.0,M,0.0,M,,*7C
$GPGSA,A,3,01,02,03,04,05,06,07,08,09,10,11,12,1.0,1.0,1.0*30
$GPRMC,014147.089,A,4355.458,N,07926.651,W,000.2,078.1,090623,000.0,W*6A
$GPGGA,014148.089,4355.458,N,07926.651,W,1,12,1.0,0.0,M,0.0,M,,*73
$GPGSA,A,3,01,02,03,04,05,06,07,08,09,10,11,12,1.0,1.0,1.0*30
$GPRMC,014148.089,A,4355.458,N,07926.651,W,000.2,078.1,090623,000.0,W*65
$GPGGA,014149.089,4355.458,N,07926.651,W,1,12,1.0,0.0,M,0.0,M,,*72
$GPGSA,A,3,01,02,03,04,05,06,07,08,09,10,11,12,1.0,1.0,1.0*30
$GPRMC,014149.089,A,4355.458,N,07926.651,W,000.2,078.1,090623,000.0,W*64
$GPGGA,014150.089,4355.458,N,07926.651,W,1,12,1.0,0.0,M,0.0,M,,*7A
$GPGSA,A,3,01,02,03,04,05,06,07,08,09,10,11,12,1.0,1.0,1.0*30
$GPRMC,014150.089,A,4355.458,N,07926.651,W,000.2,078.1,090623,000.0,W*6C
$GPGGA,014151.089,4355.458,N,07926.651,W,1,12,1.0,0.0,M,0.0,M,,*7B
$GPGSA,A,3,01,02,03,04,05,06,07,08,09,10,11,12,1.0,1.0,1.0*30
$GPRMC,014151.089,A,4355.458,N,07926.651,W,000.2,078.1,090623,000.0,W*6D
$GPGGA,014152.089,4355.458,N,07926.651,W,1,12,1.0,0.0,M,0.0,M,,*78
$GPGSA,A,3,01,02,03,04,05,06,07,08,09,10,11,12,1.0,1.0,1.0*30
$GPRMC,014152.089,A,4355.458,N,07926.651,W,000.2,078.1,090623,000.0,W*6E
$GPGGA,014153.089,4355.458,N,07926.651,W,1,12,1.0,0.0,M,0.0,M,,*79
$GPGSA,A,3,01,02,03,04,05,06,07,08,09,10,11,12,1.0,1.0,1.0*30
$GPRMC,014153.089,A,4355.458,N,07926.651,W,000.2,078.1,090623,000.0,W*6F
$GPGGA,014154.089,4355.458,N,07926.650,W,1,12,1.0,0.0,M,0.0,M,,*7F
$GPGSA,A,3,01,02,03,04,05,06,07,08,09,10,11,12,1.0,1.0,1.0*30
$GPRMC,014154.089,A,4355.458,N,07926.650,W,000.2,078.1,090623,000.0,W*69
$GPGGA,014155.089,4355.458,N,07926.650,W,1,12,1.0,0.0,M,0.0,M,,*7E
$GPGSA,A,3,01,02,03,04,05,06,07,08,09,10,11,12,1.0,1.0,1.0*30
$GPRMC,014155.089,A,4355.458,N,07926.650,W,000.2,078.1,090623,000.0,W*68
$GPGGA,014156.089,4355.458,N,07926.650,W,1,12,1.0,0.0,M,0.0,M,,*7D
$GPGSA,A,3,01,02,03,04,05,06,07,08,09,10,11,12,1.0,1.0,1.0*30
$GPRMC,014156.089,A,4355.458,N,07926.650,W,000.2,078.1,090623,000.0,W*6B
$GPGGA,014157.089,4355.458,N,07926.650,W,1,12,1.0,0.0,M,0.0,M,,*7C
$GPGSA,A,3,01,02,03,04,05,06,07,08,09,10,11,12,1.0,1.0,1.0*30
$GPRMC,014157.089,A,4355.458,N,07926.650,W,000.2,078.1,090623,000.0,W*6A
$GPGGA,014158.089,4355.458,N,07926.650,W,1,12,1.0,0.0,M,0.0,M,,*73
$GPGSA,A,3,01,02,03,04,05,06,07,08,09,10,11,12,1.0,1.0,1.0*30
$GPRMC,014158.089,A,4355.458,N,07926.650,W,000.2,078.1,090623,000.0,W*65
$GPGGA,014159.089,4355.458,N,07926.650,W,1,12,1.0,0.0,M,0.0,M,,*72
$GPGSA,A,3,01,02,03,04,05,06,07,08,09,10,11,12,1.0,1.0,1.0*30
$GPRMC,014159.089,A,4355.458,N,07926.650,W,000.2,078.1,090623,000.0,W*64
$GPGGA,014200.089,4355.458,N,07926.650,W,1,12,1.0,0.0,M,0.0,M,,*7D
$GPGSA,A,3,01,02,03,04,05,06,07,08,09,10,11,12,1.0,1.0,1.0*30
$GPRMC,014200.089,A,4355.458,N,07926.650,W,000.2,078.1,090623,000.0,W*6B
$GPGGA,014201.089,4355.458,N,07926.650,W,1,12,1.0,0.0,M,0.0,M,,*7C
$GPGSA,A,3,01,02,03,04,05,06,07,08,09,10,11,12,1.0,1.0,1.0*30
$GPRMC,014201.089,A,4355.458,N,07926.650,W,000.2,078.1,090623,000.0,W*6A
$GPGGA,014202.089,4355.458,N,07926.650,W,1,12,1.0,0.0,M,0.0,M,,*7F
$GPGSA,A,3,01,02,03,04,05,06,07,08,09,10,11,12,1.0,1.0,1.0*30
$GPRMC,014202.089,A,4355.458,N,07926.650,W,000.2,078.1,090623,000.0,W*69
$GPGGA,014203.089,4355.458,N,07926.650,W,1,12,1.0,0.0,M,0.0,M,,*7E
$GPGSA,A,3,01,02,03,04,05,06,07,08,09,10,11,12,1.0,1.0,1.0*30
$GPRMC,014203.089,A,4355.458,N,07926.650,W,000.2,078.1,090623,000.0,W*68
$GPGGA,014204.089,4355.458,N,07926.650,W,1,12,1.0,0.0,M,0.0,M,,*79
$GPGSA,A,3,01,02,03,04,05,06,07,08,09,10,11,12,1.0,1.0,1.0*30
$GPRMC,014204.089,A,4355.458,N,07926.650,W,000.2,078.1,090623,000.0,W*6F
$GPGGA,014205.089,4355.458,N,07926.650,W,1,12,1.0,0.0,M,0.0,M,,*78
$GPGSA,A,3,01,02,03,04,05,06,07,08,09,10,11,12,1.0,1.0,1.0*30
$GPRMC,014205.089,A,4355.458,N,07926.650,W,000.2,078.1,090623,000.0,W*6E
$GPGGA,014206.089,4355.458,N,07926.650,W,1,12,1.0,0.0,M,0.0,M,,*7B
$GPGSA,A,3,01,02,03,04,05,06,07,08,09,10,11,12,1.0,1.0,1.0*30
$GPRMC,014206.089,A,4355.458,N,07926.650,W,000.2,078.1,090623,000.0,W*6D
$GPGGA,014207.089,4355.458,N,07926.650,W,1,12,1.0,0.0,M,0.0,M,,*7A
$GPGSA,A,3,01,02,03,04,05,06,07,08,09,10,11,12,1.0,1.0,1.0*30
$GPRMC,014207.089,A,4355.458,N,07926.650,W,000.2,078.1,090623,000.0,W*6C
$GPGGA,014208.089,4355.458,N,07926.649,W,1,12,1.0,0.0,M,0.0,M,,*7D
$GPGSA,A,3,01,02,03,04,05,06,07,08,09,10,11,12,1.0,1.0,1.0*30
$GPRMC,014208.089,A,4355.458,N,07926.649,W,000.2,078.1,090623,000.0,W*6B
$GPGGA,014209.089,4355.458,N,07926.649,W,1,12,1.0,0.0,M,0.0,M,,*7C
$GPGSA,A,3,01,02,03,04,05,06,07,08,09,10,11,12,1.0,1.0,1.0*30
$GPRMC,014209.089,A,4355.458,N,07926.649,W,000.2,078.1,090623,000.0,W*6A
$GPGGA,014210.089,4355.458,N,07926.649,W,1,12,1.0,0.0,M,0.0,M,,*74
$GPGSA,A,3,01,02,03,04,05,06,07,08,09,10,11,12,1.0,1.0,1.0*30
$GPRMC,014210.089,A,4355.458,N,07926.649,W,000.2,078.1,090623,000.0,W*62
$GPGGA,014211.089,4355.458,N,07926.649,W,1,12,1.0,0.0,M,0.0,M,,*75
$GPGSA,A,3,01,02,03,04,05,06,07,08,09,10,11,12,1.0,1.0,1.0*30
$GPRMC,014211.089,A,4355.458,N,07926.649,W,000.2,078.1,090623,000.0,W*63
$GPGGA,014212.089,4355.458,N,07926.649,W,1,12,1.0,0.0,M,0.0,M,,*76
$GPGSA,A,3,01,02,03,04,05,06,07,08,09,10,11,12,1.0,1.0,1.0*30
$GPRMC,014212.089,A,4355.458,N,07926.649,W,000.2,078.1,090623,000.0,W*60
$GPGGA,014213.089,4355.458,N,07926.649,W,1,12,1.0,0.0,M,0.0,M,,*77
$GPGSA,A,3,01,02,03,04,05,06,07,08,09,10,11,12,1.0,1.0,1.0*30
$GPRMC,014213.089,A,4355.458,N,07926.649,W,000.2,078.1,090623,000.0,W*61
$GPGGA,014214.089,4355.458,N,07926.649,W,1,12,1.0,0.0,M,0.0,M,,*70
$GPGSA,A,3,01,02,03,04,05,06,07,08,09,10,11,12,1.0,1.0,1.0*30
$GPRMC,014214.089,A,4355.458,N,07926.649,W,000.2,078.1,090623,000.0,W*66
$GPGGA,014215.089,4355.458,N,07926.649,W,1,12,1.0,0.0,M,0.0,M,,*71
$GPGSA,A,3,01,02,03,04,05,06,07,08,09,10,11,12,1.0,1.0,1.0*30
$GPRMC,014215.089,A,4355.458,N,07926.649,W,000.2,078.1,090623,000.0,W*67
$GPGGA,014216.089,4355.458,N,07926.649,W,1,12,1.0,0.0,M,0.0,M,,*72
$GPGSA,A,3,01,02,03,04,05,06,07,08,09,10,11,12,1.0,1.0,1.0*30
$GPRMC,014216.089,A,4355.458,N,07926.649,W,000.2,078.1,090623,000.0,W*64
$GPGGA,014217.089,4355.458,N,07926.649,W,1,12,1.0,0.0,M,0.0,M,,*73
$GPGSA,A,3,01,02,03,04,05,06,07,08,09,10,11,12,1.0,1.0,1.0*30
$GPRMC,014217.089,A,4355.458,N,07926.649,W,000.2,078.1,090623,000.0,W*65
$GPGGA,014218.089,4355.458,N,07926.649,W,1,12,1.0,0.0,M,0.0,M,,*7C
$GPGSA,A,3,01,02,03,04,05,06,07,08,09,10,11,12,1.0,1.0,1.0*30
$GPRMC,014218.089,A,4355.458,N,07926.649,W,000.2,078.1,090623,000.0,W*6A
$GPGGA,014219.089,4355.458,N,07926.649,W,1,12,1.0,0.0,M,0.0,M,,*7D
$GPGSA,A,3,01,02,03,04,05,06,07,08,09,10,11,12,1.0,1.0,1.0*30
$GPRMC,014219.089,A,4355.458,N,07926.649,W,000.2,078.1,090623,000.0,W*6B
$GPGGA,014220.089,4355.458,N,07926.649,W,1,12,1.0,0.0,M,0.0,M,,*77
$GPGSA,A,3,01,02,03,04,05,06,07,08,09,10,11,12,1.0,1.0,1.0*30
$GPRMC,014220.089,A,4355.458,N,07926.649,W,000.2,078.1,090623,000.0,W*61
$GPGGA,014221.089,4355.458,N,07926.649,W,1,12,1.0,0.0,M,0.0,M,,*76
$GPGSA,A,3,01,02,03,04,05,06,07,08,09,10,11,12,1.0,1.0,1.0*30
$GPRMC,014221.089,A,4355.458,N,07926.649,W,000.2,078.1,090623,000.0,W*60
$GPGGA,014222.089,4355.458,N,07926.648,W,1,12,1.0,0.0,M,0.0,M,,*74
$GPGSA,A,3,01,02,03,04,05,06,07,08,09,10,11,12,1.0,1.0,1.0*30
$GPRMC,014222.089,A,4355.458,N,07926.648,W,000.2,078.1,090623,000.0,W*62
$GPGGA,014223.089,4355.458,N,07926.648,W,1,12,1.0,0.0,M,0.0,M,,*75
$GPGSA,A,3,01,02,03,04,05,06,07,08,09,10,11,12,1.0,1.0,1.0*30
$GPRMC,014223.089,A,4355.458,N,07926.648,W,000.2,078.1,090623,000.0,W*63
$GPGGA,014224.089,4355.458,N,07926.648,W,1,12,1.0,0.0,M,0.0,M,,*72
$GPGSA,A,3,01,02,03,04,05,06,07,08,09,10,11,12,1.0,1.0,1.0*30
$GPRMC,014224.089,A,4355.458,N,07926.648,W,000.2,078.1,090623,000.0,W*64
$GPGGA,014225.089,4355.458,N,07926.648,W,1,12,1.0,0.0,M,0.0,M,,*73
$GPGSA,A,3,01,02,03,04,05,06,07,08,09,10,11,12,1.0,1.0,1.0*30
$GPRMC,014225.089,A,4355.458,N,07926.648,W,000.2,078.1,090623,000.0,W*65
$GPGGA,014226.089,4355.458,N,07926.648,W,1,12,1.0,0.0,M,0.0,M,,*70
$GPGSA,A,3,01,02,03,04,05,06,07,08,09,10,11,12,1.0,1.0,1.0*30
$GPRMC,014226.089,A,4355.458,N,07926.648,W,000.2,078.1,090623,000.0,W*66
$GPGGA,014227.089,4355.458,N,07926.648,W,1,12,1.0,0.0,M,0.0,M,,*71
$GPGSA,A,3,01,02,03,04,05,06,07,08,09,10,11,12,1.0,1.0,1.0*30
$GPRMC,014227.089,A,4355.458,N,07926.648,W,000.2,078.1,090623,000.0,W*67
$GPGGA,014228.089,4355.458,N,07926.648,W,1,12,1.0,0.0,M,0.0,M,,*7E
$GPGSA,A,3,01,02,03,04,05,06,07,08,09,10,11,12,1.0,1.0,1.0*30
$GPRMC,014228.089,A,4355.458,N,07926.648,W,000.2,078.1,090623,000.0,W*68
$GPGGA,014229.089,4355.458,N,07926.648,W,1,12,1.0,0.0,M,0.0,M,,*7F
$GPGSA,A,3,01,02,03,04,05,06,07,08,09,10,11,12,1.0,1.0,1.0*30
$GPRMC,014229.089,A,4355.458,N,07926.648,W,000.2,078.1,090623,000.0,W*69
$GPGGA,014230.089,4355.458,N,07926.648,W,1,12,1.0,0.0,M,0.0,M,,*77
$GPGSA,A,3,01,02,03,04,05,06,07,08,09,10,11,12,1.0,1.0,1.0*30
$GPRMC,014230.089,A,4355.458,N,07926.648,W,000.2,078.1,090623,000.0,W*61
$GPGGA,014231.089,4355.458,N,07926.648,W,1,12,1.0,0.0,M,0.0,M,,*76
$GPGSA,A,3,01,02,03,04,05,06,07,08,09,10,11,12,1.0,1.0,1.0*30
$GPRMC,014231.089,A,4355.458,N,07926.648,W,000.2,078.1,090623,000.0,W*60
$GPGGA,014232.089,4355.458,N,07926.648,W,1,12,1.0,0.0,M,0.0,M,,*75
$GPGSA,A,3,01,02,03,04,05,06,07,08,09,10,11,12,1.0,1.0,1.0*30
$GPRMC,014232.089,A,4355.458,N,07926.648,W,000.2,078.1,090623,000.0,W*63
$GPGGA,014233.089,4355.458,N,07926.648,W,1,12,1.0,0.0,M,0.0,M,,*74
$GPGSA,A,3,01,02,03,04,05,06,07,08,09,10,11,12,1.0,1.0,1.0*30
$GPRMC,014233.089,A,4355.458,N,07926.648,W,000.2,078.1,090623,000.0,W*62
$GPGGA,014234.089,4355.458,N,07926.648,W,1,12,1.0,0.0,M,0.0,M,,*73
$GPGSA,A,3,01,02,03,04,05,06,07,08,09,10,11,12,1.0,1.0,1.0*30
$GPRMC,014234.089,A,4355.458,N,07926.648,W,000.2,078.1,090623,000.0,W*65
$GPGGA,014235.089,4355.458,N,07926.647,W,1,12,1.0,0.0,M,0.0,M,,*7D
$GPGSA,A,3,01,02,03,04,05,06,07,08,09,10,11,12,1.0,1.0,1.0*30
$GPRMC,014235.089,A,4355.458,N,07926.647,W,000.2,078.1,090623,000.0,W*6B
$GPGGA,014236.089,4355.458,N,07926.647,W,1,12,1.0,0.0,M,0.0,M,,*7E
$GPGSA,A,3,01,02,03,04,05,06,07,08,09,10,11,12,1.0,1.0,1.0*30
$GPRMC,014236.089,A,4355.458,N,07926.647,W,000.2,078.1,090623,000.0,W*68
$GPGGA,014237.089,4355.459,N,07926.647,W,1,12,1.0,0.0,M,0.0,M,,*7E
$GPGSA,A,3,01,02,03,04,05,06,07,08,09,10,11,12,1.0,1.0,1.0*30
$GPRMC,014237.089,A,4355.459,N,07926.647,W,000.2,078.1,090623,000.0,W*68
$GPGGA,014238.089,4355.459,N,07926.647,W,1,12,1.0,0.0,M,0.0,M,,*71
$GPGSA,A,3,01,02,03,04,05,06,07,08,09,10,11,12,1.0,1.0,1.0*30
$GPRMC,014238.089,A,4355.459,N,07926.647,W,000.2,078.1,090623,000.0,W*67
$GPGGA,014239.089,4355.459,N,07926.647,W,1,12,1.0,0.0,M,0.0,M,,*70
$GPGSA,A,3,01,02,03,04,05,06,07,08,09,10,11,12,1.0,1.0,1.0*30
$GPRMC,014239.089,A,4355.459,N,07926.647,W,000.2,078.1,090623,000.0,W*66
$GPGGA,014240.089,4355.459,N,07926.647,W,1,12,1.0,0.0,M,0.0,M,,*7E
$GPGSA,A,3,01,02,03,04,05,06,07,08,09,10,11,12,1.0,1.0,1.0*30
$GPRMC,014240.089,A,4355.459,N,07926.647,W,000.2,078.1,090623,000.0,W*68
$GPGGA,014241.089,4355.459,N,07926.647,W,1,12,1.0,0.0,M,0.0,M,,*7F
$GPGSA,A,3,01,02,03,04,05,06,07,08,09,10,11,12,1.0,1.0,1.0*30
$GPRMC,014241.089,A,4355.459,N,07926.647,W,000.2,078.1,090623,000.0,W*69
$GPGGA,014242.089,4355.459,N,07926.647,W,1,12,1.0,0.0,M,0.0,M,,*7C
$GPGSA,A,3,01,02,03,04,05,06,07,08,09,10,11,12,1.0,1.0,1.0*30
$GPRMC,014242.089,A,4355.459,N,07926.647,W,000.2,078.1,090623,000.0,W*6A
$GPGGA,014243.089,4355.459,N,07926.647,W,1,12,1.0,0.0,M,0.0,M,,*7D
$GPGSA,A,3,01,02,03,04,05,06,07,08,09,10,11,12,1.0,1.0,1.0*30
$GPRMC,014243.089,A,4355.459,N,07926.647,W,000.2,078.1,090623,000.0,W*6B
$GPGGA,014244.089,4355.459,N,07926.647,W,1,12,1.0,0.0,M,0.0,M,,*7A
$GPGSA,A,3,01,02,03,04,05,06,07,08,09,10,11,12,1.0,1.0,1.0*30
$GPRMC,014244.089,A,4355.459,N,07926.647,W,000.2,078.1,090623,000.0,W*6C
$GPGGA,014245.089,4355.459,N,07926.647,W,1,12,1.0,0.0,M,0.0,M,,*7B
$GPGSA,A,3,01,02,03,04,05,06,07,08,09,10,11,12,1.0,1.0,1.0*30
$GPRMC,014245.089,A,4355.459,N,07926.647,W,000.2,078.1,090623,000.0,W*6D
$GPGGA,014246.089,4355.459,N,07926.647,W,1,12,1.0,0.0,M,0.0,M,,*78
$GPGSA,A,3,01,02,03,04,05,06,07,08,09,10,11,12,1.0,1.0,1.0*30
$GPRMC,014246.089,A,4355.459,N,07926.647,W,000.2,078.1,090623,000.0,W*6E
$GPGGA,014247.089,4355.459,N,07926.647,W,1,12,1.0,0.0,M,0.0,M,,*79
$GPGSA,A,3,01,02,03,04,05,06,07,08,09,10,11,12,1.0,1.0,1.0*30
$GPRMC,014247.089,A,4355.459,N,07926.647,W,000.2,078.1,090623,000.0,W*6F
$GPGGA,014248.089,4355.459,N,07926.647,W,1,12,1.0,0.0,M,0.0,M,,*76
$GPGSA,A,3,01,02,03,04,05,06,07,08,09,10,11,12,1.0,1.0,1.0*30
$GPRMC,014248.089,A,4355.459,N,07926.647,W,000.2,078.1,090623,000.0,W*60
$GPGGA,014249.089,4355.459,N,07926.646,W,1,12,1.0,0.0,M,0.0,M,,*76
$GPGSA,A,3,01,02,03,04,05,06,07,08,09,10,11,12,1.0,1.0,1.0*30
$GPRMC,014249.089,A,4355.459,N,07926.646,W,000.2,078.1,090623,000.0,W*60
$GPGGA,014250.089,4355.459,N,07926.646,W,1,12,1.0,0.0,M,0.0,M,,*7E
$GPGSA,A,3,01,02,03,04,05,06,07,08,09,10,11,12,1.0,1.0,1.0*30
$GPRMC,014250.089,A,4355.459,N,07926.646,W,000.2,078.1,090623,000.0,W*68
$GPGGA,014251.089,4355.459,N,07926.646,W,1,12,1.0,0.0,M,0.0,M,,*7F
$GPGSA,A,3,01,02,03,04,05,06,07,08,09,10,11,12,1.0,1.0,1.0*30
$GPRMC,014251.089,A,4355.459,N,07926.646,W,000.2,078.1,090623,000.0,W*69
$GPGGA,014252.089,4355.459,N,07926.646,W,1,12,1.0,0.0,M,0.0,M,,*7C
$GPGSA,A,3,01,02,03,04,05,06,07,08,09,10,11,12,1.0,1.0,1.0*30
$GPRMC,014252.089,A,4355.459,N,07926.646,W,000.2,078.1,090623,000.0,W*6A
$GPGGA,014253.089,4355.459,N,07926.646,W,1,12,1.0,0.0,M,0.0,M,,*7D
$GPGSA,A,3,01,02,03,04,05,06,07,08,09,10,11,12,1.0,1.0,1.0*30
$GPRMC,014253.089,A,4355.459,N,07926.646,W,000.2,078.1,090623,000.0,W*6B
$GPGGA,014254.089,4355.459,N,07926.646,W,1,12,1.0,0.0,M,0.0,M,,*7A
$GPGSA,A,3,01,02,03,04,05,06,07,08,09,10,11,12,1.0,1.0,1.0*30
$GPRMC,014254.089,A,4355.459,N,07926.646,W,000.2,078.1,090623,000.0,W*6C
$GPGGA,014255.089,4355.459,N,07926.646,W,1,12,1.0,0.0,M,0.0,M,,*7B
$GPGSA,A,3,01,02,03,04,05,06,07,08,09,10,11,12,1.0,1.0,1.0*30
$GPRMC,014255.089,A,4355.459,N,07926.646,W,000.2,078.1,090623,000.0,W*6D
$GPGGA,014256.089,4355.459,N,07926.646,W,1,12,1.0,0.0,M,0.0,M,,*78
$GPGSA,A,3,01,02,03,04,05,06,07,08,09,10,11,12,1.0,1.0,1.0*30
$GPRMC,014256.089,A,4355.459,N,07926.646,W,000.2,078.1,090623,000.0,W*6E
$GPGGA,014257.089,4355.459,N,07926.646,W,1,12,1.0,0.0,M,0.0,M,,*79
$GPGSA,A,3,01,02,03,04,05,06,07,08,09,10,11,12,1.0,1.0,1.0*30
$GPRMC,014257.089,A,4355.459,N,07926.646,W,000.2,078.1,090623,000.0,W*6F
$GPGGA,014258.089,4355.459,N,07926.646,W,1,12,1.0,0.0,M,0.0,M,,*76
$GPGSA,A,3,01,02,03,04,05,06,07,08,09,10,11,12,1.0,1.0,1.0*30
$GPRMC,014258.089,A,4355.459,N,07926.646,W,000.2,078.1,090623,000.0,W*60
$GPGGA,014259.089,4355.459,N,07926.646,W,1,12,1.0,0.0,M,0.0,M,,*77
$GPGSA,A,3,01,02,03,04,05,06,07,08,09,10,11,12,1.0,1.0,1.0*30
$GPRMC,014259.089,A,4355.459,N,07926.646,W,000.2,078.1,090623,000.0,W*61
$GPGGA,014300.089,4355.459,N,07926.646,W,1,12,1.0,0.0,M,0.0,M,,*7A
$GPGSA,A,3,01,02,03,04,05,06,07,08,09,10,11,12,1.0,1.0,1.0*30
$GPRMC,014300.089,A,4355.459,N,07926.646,W,000.2,078.1,090623,000.0,W*6C
$GPGGA,014301.089,4355.459,N,07926.646,W,1,12,1.0,0.0,M,0.0,M,,*7B
$GPGSA,A,3,01,02,03,04,05,06,07,08,09,10,11,12,1.0,1.0,1.0*30
$GPRMC,014301.089,A,4355.459,N,07926.646,W,000.2,078.1,090623,000.0,W*6D
$GPGGA,014302.089,4355.459,N,07926.646,W,1,12,1.0,0.0,M,0.0,M,,*78
$GPGSA,A,3,01,02,03,04,05,06,07,08,09,10,11,12,1.0,1.0,1.0*30
$GPRMC,014302.089,A,4355.459,N,07926.646,W,000.2,078.1,090623,000.0,W*6E
$GPGGA,014303.089,4355.459,N,07926.645,W,1,12,1.0,0.0,M,0.0,M,,*7A
$GPGSA,A,3,01,02,03,04,05,06,07,08,09,10,11,12,1.0,1.0,1.0*30
$GPRMC,014303.089,A,4355.459,N,07926.645,W,000.2,078.1,090623,000.0,W*6C
$GPGGA,014304.089,4355.459,N,07926.645,W,1,12,1.0,0.0,M,0.0,M,,*7D
$GPGSA,A,3,01,02,03,04,05,06,07,08,09,10,11,12,1.0,1.0,1.0*30
$GPRMC,014304.089,A,4355.459,N,07926.645,W,000.2,078.1,090623,000.0,W*6B
$GPGGA,014305.089,4355.459,N,07926.645,W,1,12,1.0,0.0,M,0.0,M,,*7C
$GPGSA,A,3,01,02,03,04,05,06,07,08,09,10,11,12,1.0,1.0,1.0*30
$GPRMC,014305.089,A,4355.459,N,07926.645,W,000.2,078.1,090623,000.0,W*6A
$GPGGA,014306.089,4355.459,N,07926.645,W,1,12,1.0,0.0,M,0.0,M,,*7F
$GPGSA,A,3,01,02,03,04,05,06,07,08,09,10,11,12,1.0,1.0,1.0*30
$GPRMC,014306.089,A,4355.459,N,07926.645,W,000.2,078.1,090623,000.0,W*69
$GPGGA,014307.089,4355.459,N,07926.645,W,1,12,1.0,0.0,M,0.0,M,,*7E
$GPGSA,A,3,01,02,03,04,05,06,07,08,09,10,11,12,1.0,1.0,1.0*30
$GPRMC,014307.089,A,4355.459,N,07926.645,W,000.2,078.1,090623,000.0,W*68
$GPGGA,014308.089,4355.459,N,07926.645,W,1,12,1.0,0.0,M,0.0,M,,*71
$GPGSA,A,3,01,02,03,04,05,06,07,08,09,10,11,12,1.0,1.0,1.0*30
$GPRMC,014308.089,A,4355.459,N,07926.645,W,000.2,078.1,090623,000.0,W*67
$GPGGA,014309.089,4355.459,N,07926.645,W,1,12,1.0,0.0,M,0.0,M,,*70
$GPGSA,A,3,01,02,03,04,05,06,07,08,09,10,11,12,1.0,1.0,1.0*30
$GPRMC,014309.089,A,4355.459,N,07926.645,W,000.2,078.1,090623,000.0,W*66
$GPGGA,014310.089,4355.459,N,07926.645,W,1,12,1.0,0.0,M,0.0,M,,*78
$GPGSA,A,3,01,02,03,04,05,06,07,08,09,10,11,12,1.0,1.0,1.0*30
$GPRMC,014310.089,A,4355.459,N,07926.645,W,000.2,078.1,090623,000.0,W*6E
$GPGGA,014311.089,4355.459,N,07926.645,W,1,12,1.0,0.0,M,0.0,M,,*79
$GPGSA,A,3,01,02,03,04,05,06,07,08,09,10,11,12,1.0,1.0,1.0*30
$GPRMC,014311.089,A,4355.459,N,07926.645,W,000.2,078.1,090623,000.0,W*6F
$GPGGA,014312.089,4355.459,N,07926.645,W,1,12,1.0,0.0,M,0.0,M,,*7A
$GPGSA,A,3,01,02,03,04,05,06,07,08,09,10,11,12,1.0,1.0,1.0*30
$GPRMC,014312.089,A,4355.459,N,07926.645,W,000.2,078.1,090623,000.0,W*6C
$GPGGA,014313.089,4355.459,N,07926.645,W,1,12,1.0,0.0,M,0.0,M,,*7B
$GPGSA,A,3,01,02,03,04,05,06,07,08,09,10,11,12,1.0,1.0,1.0*30
$GPRMC,014313.089,A,4355.459,N,07926.645,W,000.2,078.1,090623,000.0,W*6D
$GPGGA,014314.089,4355.459,N,07926.645,W,1,12,1.0,0.0,M,0.0,M,,*7C
$GPGSA,A,3,01,02,03,04,05,06,07,08,09,10,11,12,1.0,1.0,1.0*30
$GPRMC,014314.089,A,4355.459,N,07926.645,W,000.2,078.1,090623,000.0,W*6A
$GPGGA,014315.089,4355.459,N,07926.645,W,1,12,1.0,0.0,M,0.0,M,,*7D
$GPGSA,A,3,01,02,03,04,05,06,07,08,09,10,11,12,1.0,1.0,1.0*30
$GPRMC,014315.089,A,4355.459,N,07926.645,W,000.2,078.1,090623,000.0,W*6B
$GPGGA,014316.089,4355.459,N,07926.645,W,1,12,1.0,0.0,M,0.0,M,,*7E
$GPGSA,A,3,01,02,03,04,05,06,07,08,09,10,11,12,1.0,1.0,1.0*30
$GPRMC,014316.089,A,4355.459,N,07926.645,W,000.2,078.1,090623,000.0,W*68
$GPGGA,014317.089,4355.459,N,07926.644,W,1,12,1.0,0.0,M,0.0,M,,*7E
$GPGSA,A,3,01,02,03,04,05,06,07,08,09,10,11,12,1.0,1.0,1.0*30
$GPRMC,014317.089,A,4355.459,N,07926.644,W,000.2,078.1,090623,000.0,W*68
$GPGGA,014318.089,4355.459,N,07926.644,W,1,12,1.0,0.0,M,0.0,M,,*71
$GPGSA,A,3,01,02,03,04,05,06,07,08,09,10,11,12,1.0,1.0,1.0*30
$GPRMC,014318.089,A,4355.459,N,07926.644,W,000.2,078.1,090623,000.0,W*67
$GPGGA,014319.089,4355.459,N,07926.644,W,1,12,1.0,0.0,M,0.0,M,,*70
$GPGSA,A,3,01,02,03,04,05,06,07,08,09,10,11,12,1.0,1.0,1.0*30
$GPRMC,014319.089,A,4355.459,N,07926.644,W,000.2,078.1,090623,000.0,W*66
$GPGGA,014320.089,4355.459,N,07926.644,W,1,12,1.0,0.0,M,0.0,M,,*7A
$GPGSA,A,3,01,02,03,04,05,06,07,08,09,10,11,12,1.0,1.0,1.0*30
$GPRMC,014320.089,A,4355.459,N,07926.644,W,000.2,078.1,090623,000.0,W*6C
$GPGGA,014321.089,4355.459,N,07926.644,W,1,12,1.0,0.0,M,0.0,M,,*7B
$GPGSA,A,3,01,02,03,04,05,06,07,08,09,10,11,12,1.0,1.0,1.0*30
$GPRMC,014321.089,A,4355.459,N,07926.644,W,000.2,078.1,090623,000.0,W*6D
$GPGGA,014322.089,4355.459,N,07926.644,W,1,12,1.0,0.0,M,0.0,M,,*78
$GPGSA,A,3,01,02,03,04,05,06,07,08,09,10,11,12,1.0,1.0,1.0*30
$GPRMC,014322.089,A,4355.459,N,07926.644,W,000.2,078.1,090623,000.0,W*6E
$GPGGA,014323.089,4355.459,N,07926.644,W,1,12,1.0,0.0,M,0.0,M,,*79
$GPGSA,A,3,01,02,03,04,05,06,07,08,09,10,11,12,1.0,1.0,1.0*30
$GPRMC,014323.089,A,4355.459,N,07926.644,W,000.2,078.1,090623,000.0,W*6F
$GPGGA,014324.089,4355.459,N,07926.644,W,1,12,1.0,0.0,M,0.0,M,,*7E
$GPGSA,A,3,01,02,03,04,05,06,07,08,09,10,11,12,1.0,1.0,1.0*30
$GPRMC,014324.089,A,4355.459,N,07926.644,W,000.2,078.1,090623,000.0,W*68
$GPGGA,014325.089,4355.459,N,07926.644,W,1,12,1.0,0.0,M,0.0,M,,*7F
$GPGSA,A,3,01,02,03,04,05,06,07,08,09,10,11,12,1.0,1.0,1.0*30
$GPRMC,014325.089,A,4355.459,N,07926.644,W,000.2,078.1,090623,000.0,W*69
$GPGGA,014326.089,4355.459,N,07926.644,W,1,12,1.0,0.0,M,0.0,M,,*7C
$GPGSA,A,3,01,02,03,04,05,06,07,08,09,10,11,12,1.0,1.0,1.0*30
$GPRMC,014326.089,A,4355.459,N,07926.644,W,000.2,078.1,090623,000.0,W*6A
$GPGGA,014327.089,4355.459,N,07926.644,W,1,12,1.0,0.0,M,0.0,M,,*7D
$GPGSA,A,3,01,02,03,04,05,06,07,08,09,10,11,12,1.0,1.0,1.0*30
$GPRMC,014327.089,A,4355.459,N,07926.644,W,000.2,078.1,090623,000.0,W*6B
$GPGGA,014328.089,4355.459,N,07926.644,W,1,12,1.0,0.0,M,0.0,M,,*72
$GPGSA,A,3,01,02,03,04,05,06,07,08,09,10,11,12,1.0,1.0,1.0*30
$GPRMC,014328.089,A,4355.459,N,07926.644,W,000.2,078.1,090623,000.0,W*64
$GPGGA,014329.089,4355.459,N,07926.644,W,1,12,1.0,0.0,M,0.0,M,,*73
$GPGSA,A,3,01,02,03,04,05,06,07,08,09,10,11,12,1.0,1.0,1.0*30
$GPRMC,014329.089,A,4355.459,N,07926.644,W,000.2,078.1,090623,000.0,W*65
$GPGGA,014330.089,4355.459,N,07926.644,W,1,12,1.0,0.0,M,0.0,M,,*7B
$GPGSA,A,3,01,02,03,04,05,06,07,08,09,10,11,12,1.0,1.0,1.0*30
$GPRMC,014330.089,A,4355.459,N,07926.644,W,000.2,078.1,090623,000.0,W*6D
$GPGGA,014331.089,4355.459,N,07926.643,W,1,12,1.0,0.0,M,0.0,M,,*7D
$GPGSA,A,3,01,02,03,04,05,06,07,08,09,10,11,12,1.0,1.0,1.0*30
$GPRMC,014331.089,A,4355.459,N,07926.643,W,000.2,078.1,090623,000.0,W*6B
$GPGGA,014332.089,4355.459,N,07926.643,W,1,12,1.0,0.0,M,0.0,M,,*7E
$GPGSA,A,3,01,02,03,04,05,06,07,08,09,10,11,12,1.0,1.0,1.0*30
$GPRMC,014332.089,A,4355.459,N,07926.643,W,000.2,078.1,090623,000.0,W*68
$GPGGA,014333.089,4355.459,N,07926.643,W,1,12,1.0,0.0,M,0.0,M,,*7F
$GPGSA,A,3,01,02,03,04,05,06,07,08,09,10,11,12,1.0,1.0,1.0*30
$GPRMC,014333.089,A,4355.459,N,07926.643,W,000.2,078.1,090623,000.0,W*69
$GPGGA,014334.089,4355.459,N,07926.643,W,1,12,1.0,0.0,M,0.0,M,,*78
$GPGSA,A,3,01,02,03,04,05,06,07,08,09,10,11,12,1.0,1.0,1.0*30
$GPRMC,014334.089,A,4355.459,N,07926.643,W,000.2,078.1,090623,000.0,W*6E
$GPGGA,014335.089,4355.459,N,07926.643,W,1,12,1.0,0.0,M,0.0,M,,*79
$GPGSA,A,3,01,02,03,04,05,06,07,08,09,10,11,12,1.0,1.0,1.0*30
$GPRMC,014335.089,A,4355.459,N,07926.643,W,000.2,078.1,090623,000.0,W*6F
$GPGGA,014336.089,4355.459,N,07926.643,W,1,12,1.0,0.0,M,0.0,M,,*7A
$GPGSA,A,3,01,02,03,04,05,06,07,08,09,10,11,12,1.0,1.0,1.0*30
$GPRMC,014336.089,A,4355.459,N,07926.643,W,000.2,078.1,090623,000.0,W*6C
$GPGGA,014337.089,4355.459,N,07926.643,W,1,12,1.0,0.0,M,0.0,M,,*7B
$GPGSA,A,3,01,02,03,04,05,06,07,08,09,10,11,12,1.0,1.0,1.0*30
$GPRMC,014337.089,A,4355.459,N,07926.643,W,000.2,078.1,090623,000.0,W*6D
$GPGGA,014338.089,4355.459,N,07926.643,W,1,12,1.0,0.0,M,0.0,M,,*74
$GPGSA,A,3,01,02,03,04,05,06,07,08,09,10,11,12,1.0,1.0,1.0*30
$GPRMC,014338.089,A,4355.459,N,07926.643,W,000.2,078.1,090623,000.0,W*62
$GPGGA,014339.089,4355.459,N,07926.643,W,1,12,1.0,0.0,M,0.0,M,,*75
$GPGSA,A,3,01,02,03,04,05,06,07,08,09,10,11,12,1.0,1.0,1.0*30
$GPRMC,014339.089,A,4355.459,N,07926.643,W,000.2,078.1,090623,000.0,W*63
$GPGGA,014340.089,4355.459,N,07926.643,W,1,12,1.0,0.0,M,0.0,M,,*7B
$GPGSA,A,3,01,02,03,04,05,06,07,08,09,10,11,12,1.0,1.0,1.0*30
$GPRMC,014340.089,A,4355.459,N,07926.643,W,000.2,078.1,090623,000.0,W*6D
$GPGGA,014341.089,4355.459,N,07926.643,W,1,12,1.0,0.0,M,0.0,M,,*7A
$GPGSA,A,3,01,02,03,04,05,06,07,08,09,10,11,12,1.0,1.0,1.0*30
$GPRMC,014341.089,A,4355.459,N,07926.643,W,000.2,078.1,090623,000.0,W*6C
$GPGGA,014342.089,4355.459,N,07926.643,W,1,12,1.0,0.0,M,0.0,M,,*79
$GPGSA,A,3,01,02,03,04,05,06,07,08,09,10,11,12,1.0,1.0,1.0*30
$GPRMC,014342.089,A,4355.459,N,07926.643,W,000.2,078.1,090623,000.0,W*6F
$GPGGA,014343.089,4355.460,N,07926.643,W,1,12,1.0,0.0,M,0.0,M,,*72
$GPGSA,A,3,01,02,03,04,05,06,07,08,09,10,11,12,1.0,1.0,1.0*30
$GPRMC,014343.089,A,4355.460,N,07926.643,W,000.2,078.1,090623,000.0,W*64
$GPGGA,014344.089,4355.460,N,07926.643,W,1,12,1.0,0.0,M,0.0,M,,*75
$GPGSA,A,3,01,02,03,04,05,06,07,08,09,10,11,12,1.0,1.0,1.0*30
$GPRMC,014344.089,A,4355.460,N,07926.643,W,000.2,078.1,090623,000.0,W*63
$GPGGA,014345.089,4355.460,N,07926.642,W,1,12,1.0,0.0,M,0.0,M,,*75
$GPGSA,A,3,01,02,03,04,05,06,07,08,09,10,11,12,1.0,1.0,1.0*30
$GPRMC,014345.089,A,4355.460,N,07926.642,W,000.2,078.1,090623,000.0,W*63
$GPGGA,014346.089,4355.460,N,07926.642,W,1,12,1.0,0.0,M,0.0,M,,*76
$GPGSA,A,3,01,02,03,04,05,06,07,08,09,10,11,12,1.0,1.0,1.0*30
$GPRMC,014346.089,A,4355.460,N,07926.642,W,000.2,078.1,090623,000.0,W*60
$GPGGA,014347.089,4355.460,N,07926.642,W,1,12,1.0,0.0,M,0.0,M,,*77
$GPGSA,A,3,01,02,03,04,05,06,07,08,09,10,11,12,1.0,1.0,1.0*30
$GPRMC,014347.089,A,4355.460,N,07926.642,W,000.2,066.3,090623,000.0,W*6C
$GPGGA,014348.089,4355.460,N,07926.642,W,1,12,1.0,0.0,M,0.0,M,,*78
$GPGSA,A,3,01,02,03,04,05,06,07,08,09,10,11,12,1.0,1.0,1.0*30
$GPRMC,014348.089,A,4355.460,N,07926.642,W,000.2,066.3,090623,000.0,W*63
$GPGGA,014349.089,4355.460,N,07926.642,W,1,12,1.0,0.0,M,0.0,M,,*79
$GPGSA,A,3,01,02,03,04,05,06,07,08,09,10,11,12,1.0,1.0,1.0*30
$GPRMC,014349.089,A,4355.460,N,07926.642,W,000.2,066.3,090623,000.0,W*62
$GPGGA,014350.089,4355.460,N,07926.642,W,1,12,1.0,0.0,M,0.0,M,,*71
$GPGSA,A,3,01,02,03,04,05,06,07,08,09,10,11,12,1.0,1.0,1.0*30
$GPRMC,014350.089,A,4355.460,N,07926.642,W,000.2,066.3,090623,000.0,W*6A
$GPGGA,014351.089,4355.460,N,07926.642,W,1,12,1.0,0.0,M,0.0,M,,*70
$GPGSA,A,3,01,02,03,04,05,06,07,08,09,10,11,12,1.0,1.0,1.0*30
$GPRMC,014351.089,A,4355.460,N,07926.642,W,000.2,066.3,090623,000.0,W*6B
$GPGGA,014352.089,4355.460,N,07926.642,W,1,12,1.0,0.0,M,0.0,M,,*73
$GPGSA,A,3,01,02,03,04,05,06,07,08,09,10,11,12,1.0,1.0,1.0*30
$GPRMC,014352.089,A,4355.460,N,07926.642,W,000.2,066.3,090623,000.0,W*68
$GPGGA,014353.089,4355.460,N,07926.642,W,1,12,1.0,0.0,M,0.0,M,,*72
$GPGSA,A,3,01,02,03,04,05,06,07,08,09,10,11,12,1.0,1.0,1.0*30
$GPRMC,014353.089,A,4355.460,N,07926.642,W,000.2,066.3,090623,000.0,W*69
$GPGGA,014354.089,4355.460,N,07926.642,W,1,12,1.0,0.0,M,0.0,M,,*75
$GPGSA,A,3,01,02,03,04,05,06,07,08,09,10,11,12,1.0,1.0,1.0*30
$GPRMC,014354.089,A,4355.460,N,07926.642,W,000.2,066.3,090623,000.0,W*6E
$GPGGA,014355.089,4355.460,N,07926.642,W,1,12,1.0,0.0,M,0.0,M,,*74
$GPGSA,A,3,01,02,03,04,05,06,07,08,09,10,11,12,1.0,1.0,1.0*30
$GPRMC,014355.089,A,4355.460,N,07926.642,W,000.2,066.3,090623,000.0,W*6F
$GPGGA,014356.089,4355.460,N,07926.642,W,1,12,1.0,0.0,M,0.0,M,,*77
$GPGSA,A,3,01,02,03,04,05,06,07,08,09,10,11,12,1.0,1.0,1.0*30
$GPRMC,014356.089,A,4355.460,N,07926.642,W,000.2,066.3,090623,000.0,W*6C
$GPGGA,014357.089,4355.460,N,07926.642,W,1,12,1.0,0.0,M,0.0,M,,*76
$GPGSA,A,3,01,02,03,04,05,06,07,08,09,10,11,12,1.0,1.0,1.0*30
$GPRMC,014357.089,A,4355.460,N,07926.642,W,000.2,066.3,090623,000.0,W*6D
$GPGGA,014358.089,4355.460,N,07926.642,W,1,12,1.0,0.0,M,0.0,M,,*79
$GPGSA,A,3,01,02,03,04,05,06,07,08,09,10,11,12,1.0,1.0,1.0*30
$GPRMC,014358.089,A,4355.460,N,07926.642,W,000.2,066.3,090623,000.0,W*62
$GPGGA,014359.089,4355.460,N,07926.642,W,1,12,1.0,0.0,M,0.0,M,,*78
$GPGSA,A,3,01,02,03,04,05,06,07,08,09,10,11,12,1.0,1.0,1.0*30
$GPRMC,014359.089,A,4355.460,N,07926.642,W,000.2,066.3,090623,000.0,W*63
$GPGGA,014400.089,4355.460,N,07926.641,W,1,12,1.0,0.0,M,0.0,M,,*70
$GPGSA,A,3,01,02,03,04,05,06,07,08,09,10,11,12,1.0,1.0,1.0*30
$GPRMC,014400.089,A,4355.460,N,07926.641,W,000.2,066.3,090623,000.0,W*6B
$GPGGA,014401.089,4355.460,N,07926.641,W,1,12,1.0,0.0,M,0.0,M,,*71
$GPGSA,A,3,01,02,03,04,05,06,07,08,09,10,11,12,1.0,1.0,1.0*30
$GPRMC,014401.089,A,4355.460,N,07926.641,W,000.2,066.3,090623,000.0,W*6A
$GPGGA,014402.089,4355.460,N,07926.641,W,1,12,1.0,0.0,M,0.0,M,,*72
$GPGSA,A,3,01,02,03,04,05,06,07,08,09,10,11,12,1.0,1.0,1.0*30
$GPRMC,014402.089,A,4355.460,N,07926.641,W,000.2,066.3,090623,000.0,W*69
$GPGGA,014403.089,4355.460,N,07926.641,W,1,12,1.0,0.0,M,0.0,M,,*73
$GPGSA,A,3,01,02,03,04,05,06,07,08,09,10,11,12,1.0,1.0,1.0*30
$GPRMC,014403.089,A,4355.460,N,07926.641,W,000.2,066.3,090623,000.0,W*68
$GPGGA,014404.089,4355.460,N,07926.641,W,1,12,1.0,0.0,M,0.0,M,,*74
$GPGSA,A,3,01,02,03,04,05,06,07,08,09,10,11,12,1.0,1.0,1.0*30
$GPRMC,014404.089,A,4355.460,N,07926.641,W,000.2,066.3,090623,000.0,W*6F
$GPGGA,014405.089,4355.460,N,07926.641,W,1,12,1.0,0.0,M,0.0,M,,*75
$GPGSA,A,3,01,02,03,04,05,06,07,08,09,10,11,12,1.0,1.0,1.0*30
$GPRMC,014405.089,A,4355.460,N,07926.641,W,000.2,066.3,090623,000.0,W*6E
$GPGGA,014406.089,4355.460,N,07926.641,W,1,12,1.0,0.0,M,0.0,M,,*76
$GPGSA,A,3,01,02,03,04,05,06,07,08,09,10,11,12,1.0,1.0,1.0*30
$GPRMC,014406.089,A,4355.460,N,07926.641,W,000.2,066.3,090623,000.0,W*6D
$GPGGA,014407.089,4355.460,N,07926.641,W,1,12,1.0,0.0,M,0.0,M,,*77
$GPGSA,A,3,01,02,03,04,05,06,07,08,09,10,11,12,1.0,1.0,1.0*30
$GPRMC,014407.089,A,4355.460,N,07926.641,W,000.2,066.3,090623,000.0,W*6C
$GPGGA,014408.089,4355.460,N,07926.641,W,1,12,1.0,0.0,M,0.0,M,,*78
$GPGSA,A,3,01,02,03,04,05,06,07,08,09,10,11,12,1.0,1.0,1.0*30
$GPRMC,014408.089,A,4355.460,N,07926.641,W,000.2,066.3,090623,000.0,W*63
$GPGGA,014409.089,4355.460,N,07926.641,W,1,12,1.0,0.0,M,0.0,M,,*79
$GPGSA,A,3,01,02,03,04,05,06,07,08,09,10,11,12,1.0,1.0,1.0*30
$GPRMC,014409.089,A,4355.460,N,07926.641,W,000.2,066.3,090623,000.0,W*62
$GPGGA,014410.089,4355.460,N,07926.641,W,1,12,1.0,0.0,M,0.0,M,,*71
$GPGSA,A,3,01,02,03,04,05,06,07,08,09,10,11,12,1.0,1.0,1.0*30
$GPRMC,014410.089,A,4355.460,N,07926.641,W,000.2,066.3,090623,000.0,W*6A
$GPGGA,014411.089,4355.460,N,07926.641,W,1,12,1.0,0.0,M,0.0,M,,*70
$GPGSA,A,3,01,02,03,04,05,06,07,08,09,10,11,12,1.0,1.0,1.0*30
$GPRMC,014411.089,A,4355.460,N,07926.641,W,000.2,066.3,090623,000.0,W*6B
$GPGGA,014412.089,4355.460,N,07926.641,W,1,12,1.0,0.0,M,0.0,M,,*73
$GPGSA,A,3,01,02,03,04,05,06,07,08,09,10,11,12,1.0,1.0,1.0*30
$GPRMC,014412.089,A,4355.460,N,07926.641,W,000.2,066.3,090623,000.0,W*68
$GPGGA,014413.089,4355.460,N,07926.641,W,1,12,1.0,0.0,M,0.0,M,,*72
$GPGSA,A,3,01,02,03,04,05,06,07,08,09,10,11,12,1.0,1.0,1.0*30
$GPRMC,014413.089,A,4355.460,N,07926.641,W,000.2,066.3,090623,000.0,W*69
$GPGGA,014414.089,4355.460,N,07926.641,W,1,12,1.0,0.0,M,0.0,M,,*75
$GPGSA,A,3,01,02,03,04,05,06,07,08,09,10,11,12,1.0,1.0,1.0*30
$GPRMC,014414.089,A,4355.460,N,07926.641,W,000.2,066.3,090623,000.0,W*6E
$GPGGA,014415.089,4355.460,N,07926.641,W,1,12,1.0,0.0,M,0.0,M,,*74
$GPGSA,A,3,01,02,03,04,05,06,07,08,09,10,11,12,1.0,1.0,1.0*30
$GPRMC,014415.089,A,4355.460,N,07926.641,W,000.2,066.3,090623,000.0,W*6F
$GPGGA,014416.089,4355.460,N,07926.640,W,1,12,1.0,0.0,M,0.0,M,,*76
$GPGSA,A,3,01,02,03,04,05,06,07,08,09,10,11,12,1.0,1.0,1.0*30
$GPRMC,014416.089,A,4355.460,N,07926.640,W,000.2,066.3,090623,000.0,W*6D
$GPGGA,014417.089,4355.460,N,07926.640,W,1,12,1.0,0.0,M,0.0,M,,*77
$GPGSA,A,3,01,02,03,04,05,06,07,08,09,10,11,12,1.0,1.0,1.0*30
$GPRMC,014417.089,A,4355.460,N,07926.640,W,000.2,066.3,090623,000.0,W*6C
$GPGGA,014418.089,4355.460,N,07926.640,W,1,12,1.0,0.0,M,0.0,M,,*78
$GPGSA,A,3,01,02,03,04,05,06,07,08,09,10,11,12,1.0,1.0,1.0*30
$GPRMC,014418.089,A,4355.460,N,07926.640,W,000.2,066.3,090623,000.0,W*63
$GPGGA,014419.089,4355.460,N,07926.640,W,1,12,1.0,0.0,M,0.0,M,,*79
$GPGSA,A,3,01,02,03,04,05,06,07,08,09,10,11,12,1.0,1.0,1.0*30
$GPRMC,014419.089,A,4355.460,N,07926.640,W,000.2,066.3,090623,000.0,W*62
$GPGGA,014420.089,4355.460,N,07926.640,W,1,12,1.0,0.0,M,0.0,M,,*73
$GPGSA,A,3,01,02,03,04,05,06,07,08,09,10,11,12,1.0,1.0,1.0*30
$GPRMC,014420.089,A,4355.460,N,07926.640,W,000.2,066.3,090623,000.0,W*68
$GPGGA,014421.089,4355.461,N,07926.640,W,1,12,1.0,0.0,M,0.0,M,,*73
$GPGSA,A,3,01,02,03,04,05,06,07,08,09,10,11,12,1.0,1.0,1.0*30
$GPRMC,014421.089,A,4355.461,N,07926.640,W,000.2,066.3,090623,000.0,W*68
$GPGGA,014422.089,4355.461,N,07926.640,W,1,12,1.0,0.0,M,0.0,M,,*70
$GPGSA,A,3,01,02,03,04,05,06,07,08,09,10,11,12,1.0,1.0,1.0*30
$GPRMC,014422.089,A,4355.461,N,07926.640,W,000.2,066.3,090623,000.0,W*6B
$GPGGA,014423.089,4355.461,N,07926.640,W,1,12,1.0,0.0,M,0.0,M,,*71
$GPGSA,A,3,01,02,03,04,05,06,07,08,09,10,11,12,1.0,1.0,1.0*30
$GPRMC,014423.089,A,4355.461,N,07926.640,W,000.2,066.3,090623,000.0,W*6A
$GPGGA,014424.089,4355.461,N,07926.640,W,1,12,1.0,0.0,M,0.0,M,,*76
$GPGSA,A,3,01,02,03,04,05,06,07,08,09,10,11,12,1.0,1.0,1.0*30
$GPRMC,014424.089,A,4355.461,N,07926.640,W,000.2,066.3,090623,000.0,W*6D
$GPGGA,014425.089,4355.461,N,07926.640,W,1,12,1.0,0.0,M,0.0,M,,*77
$GPGSA,A,3,01,02,03,04,05,06,07,08,09,10,11,12,1.0,1.0,1.0*30
$GPRMC,014425.089,A,4355.461,N,07926.640,W,000.2,066.3,090623,000.0,W*6C
$GPGGA,014426.089,4355.461,N,07926.640,W,1,12,1.0,0.0,M,0.0,M,,*74
$GPGSA,A,3,01,02,03,04,05,06,07,08,09,10,11,12,1.0,1.0,1.0*30
$GPRMC,014426.089,A,4355.461,N,07926.640,W,000.2,066.3,090623,000.0,W*6F
$GPGGA,014427.089,4355.461,N,07926.640,W,1,12,1.0,0.0,M,0.0,M,,*75
$GPGSA,A,3,01,02,03,04,05,06,07,08,09,10,11,12,1.0,1.0,1.0*30
$GPRMC,014427.089,A,4355.461,N,07926.640,W,000.2,066.3,090623,000.0,W*6E
$GPGGA,014428.089,4355.461,N,07926.640,W,1,12,1.0,0.0,M,0.0,M,,*7A
$GPGSA,A,3,01,02,03,04,05,06,07,08,09,10,11,12,1.0,1.0,1.0*30
$GPRMC,014428.089,A,4355.461,N,07926.640,W,000.2,066.3,090623,000.0,W*61
$GPGGA,014429.089,4355.461,N,07926.640,W,1,12,1.0,0.0,M,0.0,M,,*7B
$GPGSA,A,3,01,02,03,04,05,06,07,08,09,10,11,12,1.0,1.0,1.0*30
$GPRMC,014429.089,A,4355.461,N,07926.640,W,000.2,066.3,090623,000.0,W*60
$GPGGA,014430.089,4355.461,N,07926.640,W,1,12,1.0,0.0,M,0.0,M,,*73
$GPGSA,A,3,01,02,03,04,05,06,07,08,09,10,11,12,1.0,1.0,1.0*30
$GPRMC,014430.089,A,4355.461,N,07926.640,W,000.2,066.3,090623,000.0,W*68
$GPGGA,014431.089,4355.461,N,07926.640,W,1,12,1.0,0.0,M,0.0,M,,*72
$GPGSA,A,3,01,02,03,04,05,06,07,08,09,10,11,12,1.0,1.0,1.0*30
$GPRMC,014431.089,A,4355.461,N,07926.640,W,000.2,066.3,090623,000.0,W*69
$GPGGA,014432.089,4355.461,N,07926.639,W,1,12,1.0,0.0,M,0.0,M,,*7F
$GPGSA,A,3,01,02,03,04,05,06,07,08,09,10,11,12,1.0,1.0,1.0*30
$GPRMC,014432.089,A,4355.461,N,07926.639,W,000.2,066.3,090623,000.0,W*64
$GPGGA,014433.089,4355.461,N,07926.639,W,1,12,1.0,0.0,M,0.0,M,,*7E
$GPGSA,A,3,01,02,03,04,05,06,07,08,09,10,11,12,1.0,1.0,1.0*30
$GPRMC,014433.089,A,4355.461,N,07926.639,W,000.2,066.3,090623,000.0,W*65
$GPGGA,014434.089,4355.461,N,07926.639,W,1,12,1.0,0.0,M,0.0,M,,*79
$GPGSA,A,3,01,02,03,04,05,06,07,08,09,10,11,12,1.0,1.0,1.0*30
$GPRMC,014434.089,A,4355.461,N,07926.639,W,000.2,066.3,090623,000.0,W*62
$GPGGA,014435.089,4355.461,N,07926.639,W,1,12,1.0,0.0,M,0.0,M,,*78
$GPGSA,A,3,01,02,03,04,05,06,07,08,09,10,11,12,1.0,1.0,1.0*30
$GPRMC,014435.089,A,4355.461,N,07926.639,W,000.2,066.3,090623,000.0,W*63
$GPGGA,014436.089,4355.461,N,07926.639,W,1,12,1.0,0.0,M,0.0,M,,*7B
$GPGSA,A,3,01,02,03,04,05,06,07,08,09,10,11,12,1.0,1.0,1.0*30
$GPRMC,014436.089,A,4355.461,N,07926.639,W,000.2,066.3,090623,000.0,W*60
$GPGGA,014437.089,4355.461,N,07926.639,W,1,12,1.0,0.0,M,0.0,M,,*7A
$GPGSA,A,3,01,02,03,04,05,06,07,08,09,10,11,12,1.0,1.0,1.0*30
$GPRMC,014437.089,A,4355.461,N,07926.639,W,000.2,066.3,090623,000.0,W*61
