$GPGGA,233546.977,5231.174,N,01321.619,E,1,12,1.0,0.0,M,0.0,M,,*6A
$GPGSA,A,3,01,02,03,04,05,06,07,08,09,10,11,12,1.0,1.0,1.0*30
$GPRMC,233546.977,A,5231.174,N,01321.619,E,000.2,006.4,080623,000.0,W*71
$GPGGA,233547.977,5231.174,N,01321.619,E,1,12,1.0,0.0,M,0.0,M,,*6B
$GPGSA,A,3,01,02,03,04,05,06,07,08,09,10,11,12,1.0,1.0,1.0*30
$GPRMC,233547.977,A,5231.174,N,01321.619,E,000.2,006.4,080623,000.0,W*70
$GPGGA,233548.977,5231.174,N,01321.619,E,1,12,1.0,0.0,M,0.0,M,,*64
$GPGSA,A,3,01,02,03,04,05,06,07,08,09,10,11,12,1.0,1.0,1.0*30
$GPRMC,233548.977,A,5231.174,N,01321.619,E,000.2,006.4,080623,000.0,W*7F
$GPGGA,233549.977,5231.174,N,01321.619,E,1,12,1.0,0.0,M,0.0,M,,*65
$GPGSA,A,3,01,02,03,04,05,06,07,08,09,10,11,12,1.0,1.0,1.0*30
$GPRMC,233549.977,A,5231.174,N,01321.619,E,000.2,006.4,080623,000.0,W*7E
$GPGGA,233550.977,5231.174,N,01321.619,E,1,12,1.0,0.0,M,0.0,M,,*6D
$GPGSA,A,3,01,02,03,04,05,06,07,08,09,10,11,12,1.0,1.0,1.0*30
$GPRMC,233550.977,A,5231.174,N,01321.619,E,000.2,006.4,080623,000.0,W*76
$GPGGA,233551.977,5231.174,N,01321.619,E,1,12,1.0,0.0,M,0.0,M,,*6C
$GPGSA,A,3,01,02,03,04,05,06,07,08,09,10,11,12,1.0,1.0,1.0*30
$GPRMC,233551.977,A,5231.174,N,01321.619,E,000.2,006.4,080623,000.0,W*77
$GPGGA,233552.977,5231.174,N,01321.619,E,1,12,1.0,0.0,M,0.0,M,,*6F
$GPGSA,A,3,01,02,03,04,05,06,07,08,09,10,11,12,1.0,1.0,1.0*30
$GPRMC,233552.977,A,5231.174,N,01321.619,E,000.2,006.4,080623,000.0,W*74
$GPGGA,233553.977,5231.174,N,01321.619,E,1,12,1.0,0.0,M,0.0,M,,*6E
$GPGSA,A,3,01,02,03,04,05,06,07,08,09,10,11,12,1.0,1.0,1.0*30
$GPRMC,233553.977,A,5231.174,N,01321.619,E,000.2,006.4,080623,000.0,W*75
$GPGGA,233554.977,5231.174,N,01321.619,E,1,12,1.0,0.0,M,0.0,M,,*69
$GPGSA,A,3,01,02,03,04,05,06,07,08,09,10,11,12,1.0,1.0,1.0*30
$GPRMC,233554.977,A,5231.174,N,01321.619,E,000.2,006.4,080623,000.0,W*72
$GPGGA,233555.977,5231.174,N,01321.619,E,1,12,1.0,0.0,M,0.0,M,,*68
$GPGSA,A,3,01,02,03,04,05,06,07,08,09,10,11,12,1.0,1.0,1.0*30
$GPRMC,233555.977,A,5231.174,N,01321.619,E,000.2,006.4,080623,000.0,W*73
$GPGGA,233556.977,5231.174,N,01321.619,E,1,12,1.0,0.0,M,0.0,M,,*6B
$GPGSA,A,3,01,02,03,04,05,06,07,08,09,10,11,12,1.0,1.0,1.0*30
$GPRMC,233556.977,A,5231.174,N,01321.619,E,000.2,006.4,080623,000.0,W*70
$GPGGA,233557.977,5231.174,N,01321.619,E,1,12,1.0,0.0,M,0.0,M,,*6A
$GPGSA,A,3,01,02,03,04,05,06,07,08,09,10,11,12,1.0,1.0,1.0*30
$GPRMC,233557.977,A,5231.174,N,01321.619,E,000.2,006.4,080623,000.0,W*71
$GPGGA,233558.977,5231.174,N,01321.619,E,1,12,1.0,0.0,M,0.0,M,,*65
$GPGSA,A,3,01,02,03,04,05,06,07,08,09,10,11,12,1.0,1.0,1.0*30
$GPRMC,233558.977,A,5231.174,N,01321.619,E,000.2,006.4,080623,000.0,W*7E
$GPGGA,233559.977,5231.175,N,01321.619,E,1,12,1.0,0.0,M,0.0,M,,*65
$GPGSA,A,3,01,02,03,04,05,06,07,08,09,10,11,12,1.0,1.0,1.0*30
$GPRMC,233559.977,A,5231.175,N,01321.619,E,000.2,006.4,080623,000.0,W*7E
$GPGGA,233600.977,5231.175,N,01321.619,E,1,12,1.0,0.0,M,0.0,M,,*6A
$GPGSA,A,3,01,02,03,04,05,06,07,08,09,10,11,12,1.0,1.0,1.0*30
$GPRMC,233600.977,A,5231.175,N,01321.619,E,000.2,006.4,080623,000.0,W*71
$GPGGA,233601.977,5231.175,N,01321.619,E,1,12,1.0,0.0,M,0.0,M,,*6B
$GPGSA,A,3,01,02,03,04,05,06,07,08,09,10,11,12,1.0,1.0,1.0*30
$GPRMC,233601.977,A,5231.175,N,01321.619,E,000.2,006.4,080623,000.0,W*70
$GPGGA,233602.977,5231.175,N,01321.619,E,1,12,1.0,0.0,M,0.0,M,,*68
$GPGSA,A,3,01,02,03,04,05,06,07,08,09,10,11,12,1.0,1.0,1.0*30
$GPRMC,233602.977,A,5231.175,N,01321.619,E,000.2,006.4,080623,000.0,W*73
$GPGGA,233603.977,5231.175,N,01321.619,E,1,12,1.0,0.0,M,0.0,M,,*69
$GPGSA,A,3,01,02,03,04,05,06,07,08,09,10,11,12,1.0,1.0,1.0*30
$GPRMC,233603.977,A,5231.175,N,01321.619,E,000.2,006.4,080623,000.0,W*72
$GPGGA,233604.977,5231.175,N,01321.619,E,1,12,1.0,0.0,M,0.0,M,,*6E
$GPGSA,A,3,01,02,03,04,05,06,07,08,09,10,11,12,1.0,1.0,1.0*30
$GPRMC,233604.977,A,5231.175,N,01321.619,E,000.2,006.4,080623,000.0,W*75
$GPGGA,233605.977,5231.175,N,01321.619,E,1,12,1.0,0.0,M,0.0,M,,*6F
$GPGSA,A,3,01,02,03,04,05,06,07,08,09,10,11,12,1.0,1.0,1.0*30
$GPRMC,233605.977,A,5231.175,N,01321.619,E,000.2,006.4,080623,000.0,W*74
$GPGGA,233606.977,5231.175,N,01321.619,E,1,12,1.0,0.0,M,0.0,M,,*6C
$GPGSA,A,3,01,02,03,04,05,06,07,08,09,10,11,12,1.0,1.0,1.0*30
$GPRMC,233606.977,A,5231.175,N,01321.619,E,000.2,006.4,080623,000.0,W*77
$GPGGA,233607.977,5231.175,N,01321.619,E,1,12,1.0,0.0,M,0.0,M,,*6D
$GPGSA,A,3,01,02,03,04,05,06,07,08,09,10,11,12,1.0,1.0,1.0*30
$GPRMC,233607.977,A,5231.175,N,01321.619,E,000.2,006.4,080623,000.0,W*76
$GPGGA,233608.977,5231.175,N,01321.619,E,1,12,1.0,0.0,M,0.0,M,,*62
$GPGSA,A,3,01,02,03,04,05,06,07,08,09,10,11,12,1.0,1.0,1.0*30
$GPRMC,233608.977,A,5231.175,N,01321.619,E,000.2,006.4,080623,000.0,W*79
$GPGGA,233609.977,5231.175,N,01321.619,E,1,12,1.0,0.0,M,0.0,M,,*63
$GPGSA,A,3,01,02,03,04,05,06,07,08,09,10,11,12,1.0,1.0,1.0*30
$GPRMC,233609.977,A,5231.175,N,01321.619,E,000.2,006.4,080623,000.0,W*78
$GPGGA,233610.977,5231.175,N,01321.619,E,1,12,1.0,0.0,M,0.0,M,,*6B
$GPGSA,A,3,01,02,03,04,05,06,07,08,09,10,11,12,1.0,1.0,1.0*30
$GPRMC,233610.977,A,5231.175,N,01321.619,E,000.2,006.4,080623,000.0,W*70
$GPGGA,233611.977,5231.175,N,01321.619,E,1,12,1.0,0.0,M,0.0,M,,*6A
$GPGSA,A,3,01,02,03,04,05,06,07,08,09,10,11,12,1.0,1.0,1.0*30
$GPRMC,233611.977,A,5231.175,N,01321.619,E,000.2,006.4,080623,000.0,W*71
$GPGGA,233612.977,5231.175,N,01321.619,E,1,12,1.0,0.0,M,0.0,M,,*69
$GPGSA,A,3,01,02,03,04,05,06,07,08,09,10,11,12,1.0,1.0,1.0*30
$GPRMC,233612.977,A,5231.175,N,01321.619,E,000.2,006.4,080623,000.0,W*72
$GPGGA,233613.977,5231.175,N,01321.619,E,1,12,1.0,0.0,M,0.0,M,,*68
$GPGSA,A,3,01,02,03,04,05,06,07,08,09,10,11,12,1.0,1.0,1.0*30
$GPRMC,233613.977,A,5231.175,N,01321.619,E,000.2,006.4,080623,000.0,W*73
$GPGGA,233614.977,5231.175,N,01321.619,E,1,12,1.0,0.0,M,0.0,M,,*6F
$GPGSA,A,3,01,02,03,04,05,06,07,08,09,10,11,12,1.0,1.0,1.0*30
$GPRMC,233614.977,A,5231.175,N,01321.619,E,000.2,006.4,080623,000.0,W*74
$GPGGA,233615.977,5231.175,N,01321.619,E,1,12,1.0,0.0,M,0.0,M,,*6E
$GPGSA,A,3,01,02,03,04,05,06,07,08,09,10,11,12,1.0,1.0,1.0*30
$GPRMC,233615.977,A,5231.175,N,01321.619,E,000.2,006.4,080623,000.0,W*75
$GPGGA,233616.977,5231.175,N,01321.619,E,1,12,1.0,0.0,M,0.0,M,,*6D
$GPGSA,A,3,01,02,03,04,05,06,07,08,09,10,11,12,1.0,1.0,1.0*30
$GPRMC,233616.977,A,5231.175,N,01321.619,E,000.2,006.4,080623,000.0,W*76
$GPGGA,233617.977,5231.175,N,01321.619,E,1,12,1.0,0.0,M,0.0,M,,*6C
$GPGSA,A,3,01,02,03,04,05,06,07,08,09,10,11,12,1.0,1.0,1.0*30
$GPRMC,233617.977,A,5231.175,N,01321.619,E,000.2,006.4,080623,000.0,W*77
$GPGGA,233618.977,5231.176,N,01321.619,E,1,12,1.0,0.0,M,0.0,M,,*60
$GPGSA,A,3,01,02,03,04,05,06,07,08,09,10,11,12,1.0,1.0,1.0*30
$GPRMC,233618.977,A,5231.176,N,01321.619,E,000.2,006.4,080623,000.0,W*7B
$GPGGA,233619.977,5231.176,N,01321.619,E,1,12,1.0,0.0,M,0.0,M,,*61
$GPGSA,A,3,01,02,03,04,05,06,07,08,09,10,11,12,1.0,1.0,1.0*30
$GPRMC,233619.977,A,5231.176,N,01321.619,E,000.2,006.4,080623,000.0,W*7A
$GPGGA,233620.977,5231.176,N,01321.619,E,1,12,1.0,0.0,M,0.0,M,,*6B
$GPGSA,A,3,01,02,03,04,05,06,07,08,09,10,11,12,1.0,1.0,1.0*30
$GPRMC,233620.977,A,5231.176,N,01321.619,E,000.2,006.4,080623,000.0,W*70
$GPGGA,233621.977,5231.176,N,01321.619,E,1,12,1.0,0.0,M,0.0,M,,*6A
$GPGSA,A,3,01,02,03,04,05,06,07,08,09,10,11,12,1.0,1.0,1.0*30
$GPRMC,233621.977,A,5231.176,N,01321.619,E,000.2,006.4,080623,000.0,W*71
$GPGGA,233622.977,5231.176,N,01321.619,E,1,12,1.0,0.0,M,0.0,M,,*69
$GPGSA,A,3,01,02,03,04,05,06,07,08,09,10,11,12,1.0,1.0,1.0*30
$GPRMC,233622.977,A,5231.176,N,01321.619,E,000.2,006.4,080623,000.0,W*72
$GPGGA,233623.977,5231.176,N,01321.619,E,1,12,1.0,0.0,M,0.0,M,,*68
$GPGSA,A,3,01,02,03,04,05,06,07,08,09,10,11,12,1.0,1.0,1.0*30
$GPRMC,233623.977,A,5231.176,N,01321.619,E,000.2,006.4,080623,000.0,W*73
$GPGGA,233624.977,5231.176,N,01321.619,E,1,12,1.0,0.0,M,0.0,M,,*6F
$GPGSA,A,3,01,02,03,04,05,06,07,08,09,10,11,12,1.0,1.0,1.0*30
$GPRMC,233624.977,A,5231.176,N,01321.619,E,000.2,006.4,080623,000.0,W*74
$GPGGA,233625.977,5231.176,N,01321.619,E,1,12,1.0,0.0,M,0.0,M,,*6E
$GPGSA,A,3,01,02,03,04,05,06,07,08,09,10,11,12,1.0,1.0,1.0*30
$GPRMC,233625.977,A,5231.176,N,01321.619,E,000.2,006.4,080623,000.0,W*75
$GPGGA,233626.977,5231.176,N,01321.619,E,1,12,1.0,0.0,M,0.0,M,,*6D
$GPGSA,A,3,01,02,03,04,05,06,07,08,09,10,11,12,1.0,1.0,1.0*30
$GPRMC,233626.977,A,5231.176,N,01321.619,E,000.2,006.4,080623,000.0,W*76
$GPGGA,233627.977,5231.176,N,01321.619,E,1,12,1.0,0.0,M,0.0,M,,*6C
$GPGSA,A,3,01,02,03,04,05,06,07,08,09,10,11,12,1.0,1.0,1.0*30
$GPRMC,233627.977,A,5231.176,N,01321.619,E,000.2,006.4,080623,000.0,W*77
$GPGGA,233628.977,5231.176,N,01321.619,E,1,12,1.0,0.0,M,0.0,M,,*63
$GPGSA,A,3,01,02,03,04,05,06,07,08,09,10,11,12,1.0,1.0,1.0*30
$GPRMC,233628.977,A,5231.176,N,01321.619,E,000.2,006.4,080623,000.0,W*78
$GPGGA,233629.977,5231.176,N,01321.619,E,1,12,1.0,0.0,M,0.0,M,,*62
$GPGSA,A,3,01,02,03,04,05,06,07,08,09,10,11,12,1.0,1.0,1.0*30
$GPRMC,233629.977,A,5231.176,N,01321.619,E,000.2,006.4,080623,000.0,W*79
$GPGGA,233630.977,5231.176,N,01321.619,E,1,12,1.0,0.0,M,0.0,M,,*6A
$GPGSA,A,3,01,02,03,04,05,06,07,08,09,10,11,12,1.0,1.0,1.0*30
$GPRMC,233630.977,A,5231.176,N,01321.619,E,000.2,006.4,080623,000.0,W*71
$GPGGA,233631.977,5231.176,N,01321.619,E,1,12,1.0,0.0,M,0.0,M,,*6B
$GPGSA,A,3,01,02,03,04,05,06,07,08,09,10,11,12,1.0,1.0,1.0*30
$GPRMC,233631.977,A,5231.176,N,01321.619,E,000.2,006.4,080623,000.0,W*70
$GPGGA,233632.977,5231.176,N,01321.619,E,1,12,1.0,0.0,M,0.0,M,,*68
$GPGSA,A,3,01,02,03,04,05,06,07,08,09,10,11,12,1.0,1.0,1.0*30
$GPRMC,233632.977,A,5231.176,N,01321.619,E,000.2,006.4,080623,000.0,W*73
$GPGGA,233633.977,5231.176,N,01321.619,E,1,12,1.0,0.0,M,0.0,M,,*69
$GPGSA,A,3,01,02,03,04,05,06,07,08,09,10,11,12,1.0,1.0,1.0*30
$GPRMC,233633.977,A,5231.176,N,01321.619,E,000.2,006.4,080623,000.0,W*72
$GPGGA,233634.977,5231.176,N,01321.619,E,1,12,1.0,0.0,M,0.0,M,,*6E
$GPGSA,A,3,01,02,03,04,05,06,07,08,09,10,11,12,1.0,1.0,1.0*30
$GPRMC,233634.977,A,5231.176,N,01321.619,E,000.2,006.4,080623,000.0,W*75
$GPGGA,233635.977,5231.176,N,01321.619,E,1,12,1.0,0.0,M,0.0,M,,*6F
$GPGSA,A,3,01,02,03,04,05,06,07,08,09,10,11,12,1.0,1.0,1.0*30
$GPRMC,233635.977,A,5231.176,N,01321.619,E,000.2,006.4,080623,000.0,W*74
$GPGGA,233636.977,5231.177,N,01321.619,E,1,12,1.0,0.0,M,0.0,M,,*6D
$GPGSA,A,3,01,02,03,04,05,06,07,08,09,10,11,12,1.0,1.0,1.0*30
$GPRMC,233636.977,A,5231.177,N,01321.619,E,000.2,006.4,080623,000.0,W*76
$GPGGA,233637.977,5231.177,N,01321.619,E,1,12,1.0,0.0,M,0.0,M,,*6C
$GPGSA,A,3,01,02,03,04,05,06,07,08,09,10,11,12,1.0,1.0,1.0*30
$GPRMC,233637.977,A,5231.177,N,01321.619,E,000.2,006.4,080623,000.0,W*77
$GPGGA,233638.977,5231.177,N,01321.619,E,1,12,1.0,0.0,M,0.0,M,,*63
$GPGSA,A,3,01,02,03,04,05,06,07,08,09,10,11,12,1.0,1.0,1.0*30
$GPRMC,233638.977,A,5231.177,N,01321.619,E,000.2,006.4,080623,000.0,W*78
$GPGGA,233639.977,5231.177,N,01321.619,E,1,12,1.0,0.0,M,0.0,M,,*62
$GPGSA,A,3,01,02,03,04,05,06,07,08,09,10,11,12,1.0,1.0,1.0*30
$GPRMC,233639.977,A,5231.177,N,01321.619,E,000.2,006.4,080623,000.0,W*79
$GPGGA,233640.977,5231.177,N,01321.619,E,1,12,1.0,0.0,M,0.0,M,,*6C
$GPGSA,A,3,01,02,03,04,05,06,07,08,09,10,11,12,1.0,1.0,1.0*30
$GPRMC,233640.977,A,5231.177,N,01321.619,E,000.2,006.4,080623,000.0,W*77
$GPGGA,233641.977,5231.177,N,01321.619,E,1,12,1.0,0.0,M,0.0,M,,*6D
$GPGSA,A,3,01,02,03,04,05,06,07,08,09,10,11,12,1.0,1.0,1.0*30
$GPRMC,233641.977,A,5231.177,N,01321.619,E,000.2,006.4,080623,000.0,W*76
$GPGGA,233642.977,5231.177,N,01321.619,E,1,12,1.0,0.0,M,0.0,M,,*6E
$GPGSA,A,3,01,02,03,04,05,06,07,08,09,10,11,12,1.0,1.0,1.0*30
$GPRMC,233642.977,A,5231.177,N,01321.619,E,000.2,006.4,080623,000.0,W*75
$GPGGA,233643.977,5231.177,N,01321.619,E,1,12,1.0,0.0,M,0.0,M,,*6F
$GPGSA,A,3,01,02,03,04,05,06,07,08,09,10,11,12,1.0,1.0,1.0*30
$GPRMC,233643.977,A,5231.177,N,01321.619,E,000.2,006.4,080623,000.0,W*74
$GPGGA,233644.977,5231.177,N,01321.619,E,1,12,1.0,0.0,M,0.0,M,,*68
$GPGSA,A,3,01,02,03,04,05,06,07,08,09,10,11,12,1.0,1.0,1.0*30
$GPRMC,233644.977,A,5231.177,N,01321.619,E,000.2,006.4,080623,000.0,W*73
$GPGGA,233645.977,5231.177,N,01321.620,E,1,12,1.0,0.0,M,0.0,M,,*63
$GPGSA,A,3,01,02,03,04,05,06,07,08,09,10,11,12,1.0,1.0,1.0*30
$GPRMC,233645.977,A,5231.177,N,01321.620,E,000.2,006.4,080623,000.0,W*78
$GPGGA,233646.977,5231.177,N,01321.620,E,1,12,1.0,0.0,M,0.0,M,,*60
$GPGSA,A,3,01,02,03,04,05,06,07,08,09,10,11,12,1.0,1.0,1.0*30
$GPRMC,233646.977,A,5231.177,N,01321.620,E,000.2,006.4,080623,000.0,W*7B
$GPGGA,233647.977,5231.177,N,01321.620,E,1,12,1.0,0.0,M,0.0,M,,*61
$GPGSA,A,3,01,02,03,04,05,06,07,08,09,10,11,12,1.0,1.0,1.0*30
$GPRMC,233647.977,A,5231.177,N,01321.620,E,000.2,006.4,080623,000.0,W*7A
$GPGGA,233648.977,5231.177,N,01321.620,E,1,12,1.0,0.0,M,0.0,M,,*6E
$GPGSA,A,3,01,02,03,04,05,06,07,08,09,10,11,12,1.0,1.0,1.0*30
$GPRMC,233648.977,A,5231.177,N,01321.620,E,000.2,006.4,080623,000.0,W*75
$GPGGA,233649.977,5231.177,N,01321.620,E,1,12,1.0,0.0,M,0.0,M,,*6F
$GPGSA,A,3,01,02,03,04,05,06,07,08,09,10,11,12,1.0,1.0,1.0*30
$GPRMC,233649.977,A,5231.177,N,01321.620,E,000.2,006.4,080623,000.0,W*74
$GPGGA,233650.977,5231.177,N,01321.620,E,1,12,1.0,0.0,M,0.0,M,,*67
$GPGSA,A,3,01,02,03,04,05,06,07,08,09,10,11,12,1.0,1.0,1.0*30
$GPRMC,233650.977,A,5231.177,N,01321.620,E,000.2,006.4,080623,000.0,W*7C
$GPGGA,233651.977,5231.177,N,01321.620,E,1,12,1.0,0.0,M,0.0,M,,*66
$GPGSA,A,3,01,02,03,04,05,06,07,08,09,10,11,12,1.0,1.0,1.0*30
$GPRMC,233651.977,A,5231.177,N,01321.620,E,000.2,006.4,080623,000.0,W*7D
$GPGGA,233652.977,5231.177,N,01321.620,E,1,12,1.0,0.0,M,0.0,M,,*65
$GPGSA,A,3,01,02,03,04,05,06,07,08,09,10,11,12,1.0,1.0,1.0*30
$GPRMC,233652.977,A,5231.177,N,01321.620,E,000.2,006.4,080623,000.0,W*7E
$GPGGA,233653.977,5231.177,N,01321.620,E,1,12,1.0,0.0,M,0.0,M,,*64
$GPGSA,A,3,01,02,03,04,05,06,07,08,09,10,11,12,1.0,1.0,1.0*30
$GPRMC,233653.977,A,5231.177,N,01321.620,E,000.2,006.4,080623,000.0,W*7F
$GPGGA,233654.977,5231.177,N,01321.620,E,1,12,1.0,0.0,M,0.0,M,,*63
$GPGSA,A,3,01,02,03,04,05,06,07,08,09,10,11,12,1.0,1.0,1.0*30
$GPRMC,233654.977,A,5231.177,N,01321.620,E,000.2,006.4,080623,000.0,W*78
$GPGGA,233655.977,5231.178,N,01321.620,E,1,12,1.0,0.0,M,0.0,M,,*6D
$GPGSA,A,3,01,02,03,04,05,06,07,08,09,10,11,12,1.0,1.0,1.0*30
$GPRMC,233655.977,A,5231.178,N,01321.620,E,000.2,006.4,080623,000.0,W*76
$GPGGA,233656.977,5231.178,N,01321.620,E,1,12,1.0,0.0,M,0.0,M,,*6E
$GPGSA,A,3,01,02,03,04,05,06,07,08,09,10,11,12,1.0,1.0,1.0*30
$GPRMC,233656.977,A,5231.178,N,01321.620,E,000.2,006.4,080623,000.0,W*75
$GPGGA,233657.977,5231.178,N,01321.620,E,1,12,1.0,0.0,M,0.0,M,,*6F
$GPGSA,A,3,01,02,03,04,05,06,07,08,09,10,11,12,1.0,1.0,1.0*30
$GPRMC,233657.977,A,5231.178,N,01321.620,E,000.2,006.4,080623,000.0,W*74
$GPGGA,233658.977,5231.178,N,01321.620,E,1,12,1.0,0.0,M,0.0,M,,*60
$GPGSA,A,3,01,02,03,04,05,06,07,08,09,10,11,12,1.0,1.0,1.0*30
$GPRMC,233658.977,A,5231.178,N,01321.620,E,000.2,006.4,080623,000.0,W*7B
$GPGGA,233659.977,5231.178,N,01321.620,E,1,12,1.0,0.0,M,0.0,M,,*61
$GPGSA,A,3,01,02,03,04,05,06,07,08,09,10,11,12,1.0,1.0,1.0*30
$GPRMC,233659.977,A,5231.178,N,01321.620,E,000.2,006.4,080623,000.0,W*7A
$GPGGA,233700.977,5231.178,N,01321.620,E,1,12,1.0,0.0,M,0.0,M,,*6C
$GPGSA,A,3,01,02,03,04,05,06,07,08,09,10,11,12,1.0,1.0,1.0*30
$GPRMC,233700.977,A,5231.178,N,01321.620,E,000.2,006.4,080623,000.0,W*77
$GPGGA,233701.977,5231.178,N,01321.620,E,1,12,1.0,0.0,M,0.0,M,,*6D
$GPGSA,A,3,01,02,03,04,05,06,07,08,09,10,11,12,1.0,1.0,1.0*30
$GPRMC,233701.977,A,5231.178,N,01321.620,E,000.2,006.4,080623,000.0,W*76
$GPGGA,233702.977,5231.178,N,01321.620,E,1,12,1.0,0.0,M,0.0,M,,*6E
$GPGSA,A,3,01,02,03,04,05,06,07,08,09,10,11,12,1.0,1.0,1.0*30
$GPRMC,233702.977,A,5231.178,N,01321.620,E,000.2,006.4,080623,000.0,W*75
$GPGGA,233703.977,5231.178,N,01321.620,E,1,12,1.0,0.0,M,0.0,M,,*6F
$GPGSA,A,3,01,02,03,04,05,06,07,08,09,10,11,12,1.0,1.0,1.0*30
$GPRMC,233703.977,A,5231.178,N,01321.620,E,000.2,006.4,080623,000.0,W*74
$GPGGA,233704.977,5231.178,N,01321.620,E,1,12,1.0,0.0,M,0.0,M,,*68
$GPGSA,A,3,01,02,03,04,05,06,07,08,09,10,11,12,1.0,1.0,1.0*30
$GPRMC,233704.977,A,5231.178,N,01321.620,E,000.2,006.4,080623,000.0,W*73
$GPGGA,233705.977,5231.178,N,01321.620,E,1,12,1.0,0.0,M,0.0,M,,*69
$GPGSA,A,3,01,02,03,04,05,06,07,08,09,10,11,12,1.0,1.0,1.0*30
$GPRMC,233705.977,A,5231.178,N,01321.620,E,000.2,006.4,080623,000.0,W*72
$GPGGA,233706.977,5231.178,N,01321.620,E,1,12,1.0,0.0,M,0.0,M,,*6A
$GPGSA,A,3,01,02,03,04,05,06,07,08,09,10,11,12,1.0,1.0,1.0*30
$GPRMC,233706.977,A,5231.178,N,01321.620,E,000.2,006.4,080623,000.0,W*71
$GPGGA,233707.977,5231.178,N,01321.620,E,1,12,1.0,0.0,M,0.0,M,,*6B
$GPGSA,A,3,01,02,03,04,05,06,07,08,09,10,11,12,1.0,1.0,1.0*30
$GPRMC,233707.977,A,5231.178,N,01321.620,E,000.2,006.4,080623,000.0,W*70
$GPGGA,233708.977,5231.178,N,01321.620,E,1,12,1.0,0.0,M,0.0,M,,*64
$GPGSA,A,3,01,02,03,04,05,06,07,08,09,10,11,12,1.0,1.0,1.0*30
$GPRMC,233708.977,A,5231.178,N,01321.620,E,000.2,006.4,080623,000.0,W*7F
$GPGGA,233709.977,5231.178,N,01321.620,E,1,12,1.0,0.0,M,0.0,M,,*65
$GPGSA,A,3,01,02,03,04,05,06,07,08,09,10,11,12,1.0,1.0,1.0*30
$GPRMC,233709.977,A,5231.178,N,01321.620,E,000.2,006.4,080623,000.0,W*7E
$GPGGA,233710.977,5231.178,N,01321.620,E,1,12,1.0,0.0,M,0.0,M,,*6D
$GPGSA,A,3,01,02,03,04,05,06,07,08,09,10,11,12,1.0,1.0,1.0*30
$GPRMC,233710.977,A,5231.178,N,01321.620,E,000.2,006.4,080623,000.0,W*76
$GPGGA,233711.977,5231.178,N,01321.620,E,1,12,1.0,0.0,M,0.0,M,,*6C
$GPGSA,A,3,01,02,03,04,05,06,07,08,09,10,11,12,1.0,1.0,1.0*30
$GPRMC,233711.977,A,5231.178,N,01321.620,E,000.2,006.4,080623,000.0,W*77
$GPGGA,233712.977,5231.178,N,01321.620,E,1,12,1.0,0.0,M,0.0,M,,*6F
$GPGSA,A,3,01,02,03,04,05,06,07,08,09,10,11,12,1.0,1.0,1.0*30
$GPRMC,233712.977,A,5231.178,N,01321.620,E,000.2,006.4,080623,000.0,W*74
$GPGGA,233713.977,5231.178,N,01321.620,E,1,12,1.0,0.0,M,0.0,M,,*6E
$GPGSA,A,3,01,02,03,04,05,06,07,08,09,10,11,12,1.0,1.0,1.0*30
$GPRMC,233713.977,A,5231.178,N,01321.620,E,000.2,006.4,080623,000.0,W*75
$GPGGA,233714.977,5231.179,N,01321.620,E,1,12,1.0,0.0,M,0.0,M,,*68
$GPGSA,A,3,01,02,03,04,05,06,07,08,09,10,11,12,1.0,1.0,1.0*30
$GPRMC,233714.977,A,5231.179,N,01321.620,E,000.2,006.4,080623,000.0,W*73
$GPGGA,233715.977,5231.179,N,01321.620,E,1,12,1.0,0.0,M,0.0,M,,*69
$GPGSA,A,3,01,02,03,04,05,06,07,08,09,10,11,12,1.0,1.0,1.0*30
$GPRMC,233715.977,A,5231.179,N,01321.620,E,000.2,006.4,080623,000.0,W*72
$GPGGA,233716.977,5231.179,N,01321.620,E,1,12,1.0,0.0,M,0.0,M,,*6A
$GPGSA,A,3,01,02,03,04,05,06,07,08,09,10,11,12,1.0,1.0,1.0*30
$GPRMC,233716.977,A,5231.179,N,01321.620,E,000.2,006.4,080623,000.0,W*71
$GPGGA,233717.977,5231.179,N,01321.620,E,1,12,1.0,0.0,M,0.0,M,,*6B
$GPGSA,A,3,01,02,03,04,05,06,07,08,09,10,11,12,1.0,1.0,1.0*30
$GPRMC,233717.977,A,5231.179,N,01321.620,E,000.2,006.4,080623,000.0,W*70
$GPGGA,233718.977,5231.179,N,01321.620,E,1,12,1.0,0.0,M,0.0,M,,*64
$GPGSA,A,3,01,02,03,04,05,06,07,08,09,10,11,12,1.0,1.0,1.0*30
$GPRMC,233718.977,A,5231.179,N,01321.620,E,000.2,006.4,080623,000.0,W*7F
$GPGGA,233719.977,5231.179,N,01321.620,E,1,12,1.0,0.0,M,0.0,M,,*65
$GPGSA,A,3,01,02,03,04,05,06,07,08,09,10,11,12,1.0,1.0,1.0*30
$GPRMC,233719.977,A,5231.179,N,01321.620,E,000.2,006.4,080623,000.0,W*7E
$GPGGA,233720.977,5231.179,N,01321.620,E,1,12,1.0,0.0,M,0.0,M,,*6F
$GPGSA,A,3,01,02,03,04,05,06,07,08,09,10,11,12,1.0,1.0,1.0*30
$GPRMC,233720.977,A,5231.179,N,01321.620,E,000.2,006.4,080623,000.0,W*74
$GPGGA,233721.977,5231.179,N,01321.620,E,1,12,1.0,0.0,M,0.0,M,,*6E
$GPGSA,A,3,01,02,03,04,05,06,07,08,09,10,11,12,1.0,1.0,1.0*30
$GPRMC,233721.977,A,5231.179,N,01321.620,E,000.2,006.4,080623,000.0,W*75
$GPGGA,233722.977,5231.179,N,01321.620,E,1,12,1.0,0.0,M,0.0,M,,*6D
$GPGSA,A,3,01,02,03,04,05,06,07,08,09,10,11,12,1.0,1.0,1.0*30
$GPRMC,233722.977,A,5231.179,N,01321.620,E,000.2,006.4,080623,000.0,W*76
$GPGGA,233723.977,5231.179,N,01321.620,E,1,12,1.0,0.0,M,0.0,M,,*6C
$GPGSA,A,3,01,02,03,04,05,06,07,08,09,10,11,12,1.0,1.0,1.0*30
$GPRMC,233723.977,A,5231.179,N,01321.620,E,000.2,006.4,080623,000.0,W*77
$GPGGA,233724.977,5231.179,N,01321.620,E,1,12,1.0,0.0,M,0.0,M,,*6B
$GPGSA,A,3,01,02,03,04,05,06,07,08,09,10,11,12,1.0,1.0,1.0*30
$GPRMC,233724.977,A,5231.179,N,01321.620,E,000.2,006.4,080623,000.0,W*70
$GPGGA,233725.977,5231.179,N,01321.620,E,1,12,1.0,0.0,M,0.0,M,,*6A
$GPGSA,A,3,01,02,03,04,05,06,07,08,09,10,11,12,1.0,1.0,1.0*30
$GPRMC,233725.977,A,5231.179,N,01321.620,E,000.2,006.4,080623,000.0,W*71
$GPGGA,233726.977,5231.179,N,01321.620,E,1,12,1.0,0.0,M,0.0,M,,*69
$GPGSA,A,3,01,02,03,04,05,06,07,08,09,10,11,12,1.0,1.0,1.0*30
$GPRMC,233726.977,A,5231.179,N,01321.620,E,000.2,006.4,080623,000.0,W*72
$GPGGA,233727.977,5231.179,N,01321.620,E,1,12,1.0,0.0,M,0.0,M,,*68
$GPGSA,A,3,01,02,03,04,05,06,07,08,09,10,11,12,1.0,1.0,1.0*30
$GPRMC,233727.977,A,5231.179,N,01321.620,E,000.2,006.4,080623,000.0,W*73
$GPGGA,233728.977,5231.179,N,01321.620,E,1,12,1.0,0.0,M,0.0,M,,*67
$GPGSA,A,3,01,02,03,04,05,06,07,08,09,10,11,12,1.0,1.0,1.0*30
$GPRMC,233728.977,A,5231.179,N,01321.620,E,000.2,006.4,080623,000.0,W*7C
$GPGGA,233729.977,5231.179,N,01321.620,E,1,12,1.0,0.0,M,0.0,M,,*66
$GPGSA,A,3,01,02,03,04,05,06,07,08,09,10,11,12,1.0,1.0,1.0*30
$GPRMC,233729.977,A,5231.179,N,01321.620,E,000.2,006.4,080623,000.0,W*7D
$GPGGA,233730.977,5231.179,N,01321.620,E,1,12,1.0,0.0,M,0.0,M,,*6E
$GPGSA,A,3,01,02,03,04,05,06,07,08,09,10,11,12,1.0,1.0,1.0*30
$GPRMC,233730.977,A,5231.179,N,01321.620,E,000.2,006.4,080623,000.0,W*75
$GPGGA,233731.977,5231.179,N,01321.620,E,1,12,1.0,0.0,M,0.0,M,,*6F
$GPGSA,A,3,01,02,03,04,05,06,07,08,09,10,11,12,1.0,1.0,1.0*30
$GPRMC,233731.977,A,5231.179,N,01321.620,E,000.2,006.4,080623,000.0,W*74
$GPGGA,233732.977,5231.180,N,01321.620,E,1,12,1.0,0.0,M,0.0,M,,*6A
$GPGSA,A,3,01,02,03,04,05,06,07,08,09,10,11,12,1.0,1.0,1.0*30
$GPRMC,233732.977,A,5231.180,N,01321.620,E,000.2,006.4,080623,000.0,W*71
$GPGGA,233733.977,5231.180,N,01321.620,E,1,12,1.0,0.0,M,0.0,M,,*6B
$GPGSA,A,3,01,02,03,04,05,06,07,08,09,10,11,12,1.0,1.0,1.0*30
$GPRMC,233733.977,A,5231.180,N,01321.620,E,000.2,006.4,080623,000.0,W*70
$GPGGA,233734.977,5231.180,N,01321.620,E,1,12,1.0,0.0,M,0.0,M,,*6C
$GPGSA,A,3,01,02,03,04,05,06,07,08,09,10,11,12,1.0,1.0,1.0*30
$GPRMC,233734.977,A,5231.180,N,01321.620,E,000.2,006.4,080623,000.0,W*77
$GPGGA,233735.977,5231.180,N,01321.620,E,1,12,1.0,0.0,M,0.0,M,,*6D
$GPGSA,A,3,01,02,03,04,05,06,07,08,09,10,11,12,1.0,1.0,1.0*30
$GPRMC,233735.977,A,5231.180,N,01321.620,E,000.2,006.4,080623,000.0,W*76
$GPGGA,233736.977,5231.180,N,01321.620,E,1,12,1.0,0.0,M,0.0,M,,*6E
$GPGSA,A,3,01,02,03,04,05,06,07,08,09,10,11,12,1.0,1.0,1.0*30
$GPRMC,233736.977,A,5231.180,N,01321.620,E,000.2,006.4,080623,000.0,W*75
$GPGGA,233737.977,5231.180,N,01321.620,E,1,12,1.0,0.0,M,0.0,M,,*6F
$GPGSA,A,3,01,02,03,04,05,06,07,08,09,10,11,12,1.0,1.0,1.0*30
$GPRMC,233737.977,A,5231.180,N,01321.620,E,000.2,006.4,080623,000.0,W*74
$GPGGA,233738.977,5231.180,N,01321.620,E,1,12,1.0,0.0,M,0.0,M,,*60
$GPGSA,A,3,01,02,03,04,05,06,07,08,09,10,11,12,1.0,1.0,1.0*30
$GPRMC,233738.977,A,5231.180,N,01321.620,E,000.2,006.4,080623,000.0,W*7B
$GPGGA,233739.977,5231.180,N,01321.620,E,1,12,1.0,0.0,M,0.0,M,,*61
$GPGSA,A,3,01,02,03,04,05,06,07,08,09,10,11,12,1.0,1.0,1.0*30
$GPRMC,233739.977,A,5231.180,N,01321.620,E,000.2,006.4,080623,000.0,W*7A
$GPGGA,233740.977,5231.180,N,01321.620,E,1,12,1.0,0.0,M,0.0,M,,*6F
$GPGSA,A,3,01,02,03,04,05,06,07,08,09,10,11,12,1.0,1.0,1.0*30
$GPRMC,233740.977,A,5231.180,N,01321.620,E,000.2,006.4,080623,000.0,W*74
$GPGGA,233741.977,5231.180,N,01321.620,E,1,12,1.0,0.0,M,0.0,M,,*6E
$GPGSA,A,3,01,02,03,04,05,06,07,08,09,10,11,12,1.0,1.0,1.0*30
$GPRMC,233741.977,A,5231.180,N,01321.620,E,000.2,006.4,080623,000.0,W*75
$GPGGA,233742.977,5231.180,N,01321.620,E,1,12,1.0,0.0,M,0.0,M,,*6D
$GPGSA,A,3,01,02,03,04,05,06,07,08,09,10,11,12,1.0,1.0,1.0*30
$GPRMC,233742.977,A,5231.180,N,01321.620,E,000.2,006.4,080623,000.0,W*76
$GPGGA,233743.977,5231.180,N,01321.620,E,1,12,1.0,0.0,M,0.0,M,,*6C
$GPGSA,A,3,01,02,03,04,05,06,07,08,09,10,11,12,1.0,1.0,1.0*30
$GPRMC,233743.977,A,5231.180,N,01321.620,E,000.2,006.4,080623,000.0,W*77
$GPGGA,233744.977,5231.180,N,01321.620,E,1,12,1.0,0.0,M,0.0,M,,*6B
$GPGSA,A,3,01,02,03,04,05,06,07,08,09,10,11,12,1.0,1.0,1.0*30
$GPRMC,233744.977,A,5231.180,N,01321.620,E,000.2,006.4,080623,000.0,W*70
$GPGGA,233745.977,5231.180,N,01321.620,E,1,12,1.0,0.0,M,0.0,M,,*6A
$GPGSA,A,3,01,02,03,04,05,06,07,08,09,10,11,12,1.0,1.0,1.0*30
$GPRMC,233745.977,A,5231.180,N,01321.620,E,000.2,006.4,080623,000.0,W*71
$GPGGA,233746.977,5231.180,N,01321.620,E,1,12,1.0,0.0,M,0.0,M,,*69
$GPGSA,A,3,01,02,03,04,05,06,07,08,09,10,11,12,1.0,1.0,1.0*30
$GPRMC,233746.977,A,5231.180,N,01321.620,E,000.2,006.4,080623,000.0,W*72
$GPGGA,233747.977,5231.180,N,01321.620,E,1,12,1.0,0.0,M,0.0,M,,*68
$GPGSA,A,3,01,02,03,04,05,06,07,08,09,10,11,12,1.0,1.0,1.0*30
$GPRMC,233747.977,A,5231.180,N,01321.620,E,000.2,006.4,080623,000.0,W*73
$GPGGA,233748.977,5231.180,N,01321.620,E,1,12,1.0,0.0,M,0.0,M,,*67
$GPGSA,A,3,01,02,03,04,05,06,07,08,09,10,11,12,1.0,1.0,1.0*30
$GPRMC,233748.977,A,5231.180,N,01321.620,E,000.2,006.4,080623,000.0,W*7C
$GPGGA,233749.977,5231.180,N,01321.620,E,1,12,1.0,0.0,M,0.0,M,,*66
$GPGSA,A,3,01,02,03,04,05,06,07,08,09,10,11,12,1.0,1.0,1.0*30
$GPRMC,233749.977,A,5231.180,N,01321.620,E,000.2,006.4,080623,000.0,W*7D
$GPGGA,233750.977,5231.180,N,01321.620,E,1,12,1.0,0.0,M,0.0,M,,*6E
$GPGSA,A,3,01,02,03,04,05,06,07,08,09,10,11,12,1.0,1.0,1.0*30
$GPRMC,233750.977,A,5231.180,N,01321.620,E,000.2,006.4,080623,000.0,W*75
$GPGGA,233751.977,5231.181,N,01321.620,E,1,12,1.0,0.0,M,0.0,M,,*6E
$GPGSA,A,3,01,02,03,04,05,06,07,08,09,10,11,12,1.0,1.0,1.0*30
$GPRMC,233751.977,A,5231.181,N,01321.620,E,000.2,006.4,080623,000.0,W*75
$GPGGA,233752.977,5231.181,N,01321.620,E,1,12,1.0,0.0,M,0.0,M,,*6D
$GPGSA,A,3,01,02,03,04,05,06,07,08,09,10,11,12,1.0,1.0,1.0*30
$GPRMC,233752.977,A,5231.181,N,01321.620,E,000.2,006.4,080623,000.0,W*76
$GPGGA,233753.977,5231.181,N,01321.620,E,1,12,1.0,0.0,M,0.0,M,,*6C
$GPGSA,A,3,01,02,03,04,05,06,07,08,09,10,11,12,1.0,1.0,1.0*30
$GPRMC,233753.977,A,5231.181,N,01321.620,E,000.2,006.4,080623,000.0,W*77
$GPGGA,233754.977,5231.181,N,01321.620,E,1,12,1.0,0.0,M,0.0,M,,*6B
$GPGSA,A,3,01,02,03,04,05,06,07,08,09,10,11,12,1.0,1.0,1.0*30
$GPRMC,233754.977,A,5231.181,N,01321.620,E,000.2,006.4,080623,000.0,W*70
$GPGGA,233755.977,5231.181,N,01321.620,E,1,12,1.0,0.0,M,0.0,M,,*6A
$GPGSA,A,3,01,02,03,04,05,06,07,08,09,10,11,12,1.0,1.0,1.0*30
$GPRMC,233755.977,A,5231.181,N,01321.620,E,000.2,006.4,080623,000.0,W*71
$GPGGA,233756.977,5231.181,N,01321.620,E,1,12,1.0,0.0,M,0.0,M,,*69
$GPGSA,A,3,01,02,03,04,05,06,07,08,09,10,11,12,1.0,1.0,1.0*30
$GPRMC,233756.977,A,5231.181,N,01321.620,E,000.2,006.4,080623,000.0,W*72
$GPGGA,233757.977,5231.181,N,01321.620,E,1,12,1.0,0.0,M,0.0,M,,*68
$GPGSA,A,3,01,02,03,04,05,06,07,08,09,10,11,12,1.0,1.0,1.0*30
$GPRMC,233757.977,A,5231.181,N,01321.620,E,000.2,006.4,080623,000.0,W*73
$GPGGA,233758.977,5231.181,N,01321.620,E,1,12,1.0,0.0,M,0.0,M,,*67
$GPGSA,A,3,01,02,03,04,05,06,07,08,09,10,11,12,1.0,1.0,1.0*30
$GPRMC,233758.977,A,5231.181,N,01321.620,E,000.2,006.4,080623,000.0,W*7C
$GPGGA,233759.977,5231.181,N,01321.620,E,1,12,1.0,0.0,M,0.0,M,,*66
$GPGSA,A,3,01,02,03,04,05,06,07,08,09,10,11,12,1.0,1.0,1.0*30
$GPRMC,233759.977,A,5231.181,N,01321.620,E,000.2,006.4,080623,000.0,W*7D
$GPGGA,233800.977,5231.181,N,01321.620,E,1,12,1.0,0.0,M,0.0,M,,*65
$GPGSA,A,3,01,02,03,04,05,06,07,08,09,10,11,12,1.0,1.0,1.0*30
$GPRMC,233800.977,A,5231.181,N,01321.620,E,000.2,006.4,080623,000.0,W*7E
$GPGGA,233801.977,5231.181,N,01321.620,E,1,12,1.0,0.0,M,0.0,M,,*64
$GPGSA,A,3,01,02,03,04,05,06,07,08,09,10,11,12,1.0,1.0,1.0*30
$GPRMC,233801.977,A,5231.181,N,01321.620,E,000.2,006.4,080623,000.0,W*7F
$GPGGA,233802.977,5231.181,N,01321.620,E,1,12,1.0,0.0,M,0.0,M,,*67
$GPGSA,A,3,01,02,03,04,05,06,07,08,09,10,11,12,1.0,1.0,1.0*30
$GPRMC,233802.977,A,5231.181,N,01321.620,E,000.2,006.4,080623,000.0,W*7C
$GPGGA,233803.977,5231.181,N,01321.620,E,1,12,1.0,0.0,M,0.0,M,,*66
$GPGSA,A,3,01,02,03,04,05,06,07,08,09,10,11,12,1.0,1.0,1.0*30
$GPRMC,233803.977,A,5231.181,N,01321.620,E,000.2,006.4,080623,000.0,W*7D
$GPGGA,233804.977,5231.181,N,01321.620,E,1,12,1.0,0.0,M,0.0,M,,*61
$GPGSA,A,3,01,02,03,04,05,06,07,08,09,10,11,12,1.0,1.0,1.0*30
$GPRMC,233804.977,A,5231.181,N,01321.620,E,000.2,006.4,080623,000.0,W*7A
$GPGGA,233805.977,5231.181,N,01321.620,E,1,12,1.0,0.0,M,0.0,M,,*60
$GPGSA,A,3,01,02,03,04,05,06,07,08,09,10,11,12,1.0,1.0,1.0*30
$GPRMC,233805.977,A,5231.181,N,01321.620,E,000.2,006.4,080623,000.0,W*7B
$GPGGA,233806.977,5231.181,N,01321.620,E,1,12,1.0,0.0,M,0.0,M,,*63
$GPGSA,A,3,01,02,03,04,05,06,07,08,09,10,11,12,1.0,1.0,1.0*30
$GPRMC,233806.977,A,5231.181,N,01321.620,E,000.2,006.4,080623,000.0,W*78
$GPGGA,233807.977,5231.181,N,01321.620,E,1,12,1.0,0.0,M,0.0,M,,*62
$GPGSA,A,3,01,02,03,04,05,06,07,08,09,10,11,12,1.0,1.0,1.0*30
$GPRMC,233807.977,A,5231.181,N,01321.620,E,000.2,006.4,080623,000.0,W*79
$GPGGA,233808.977,5231.181,N,01321.620,E,1,12,1.0,0.0,M,0.0,M,,*6D
$GPGSA,A,3,01,02,03,04,05,06,07,08,09,10,11,12,1.0,1.0,1.0*30
$GPRMC,233808.977,A,5231.181,N,01321.620,E,000.2,006.4,080623,000.0,W*76
$GPGGA,233809.977,5231.182,N,01321.620,E,1,12,1.0,0.0,M,0.0,M,,*6F
$GPGSA,A,3,01,02,03,04,05,06,07,08,09,10,11,12,1.0,1.0,1.0*30
$GPRMC,233809.977,A,5231.182,N,01321.620,E,000.2,006.4,080623,000.0,W*74
$GPGGA,233810.977,5231.182,N,01321.620,E,1,12,1.0,0.0,M,0.0,M,,*67
$GPGSA,A,3,01,02,03,04,05,06,07,08,09,10,11,12,1.0,1.0,1.0*30
$GPRMC,233810.977,A,5231.182,N,01321.620,E,000.2,006.4,080623,000.0,W*7C
$GPGGA,233811.977,5231.182,N,01321.620,E,1,12,1.0,0.0,M,0.0,M,,*66
$GPGSA,A,3,01,02,03,04,05,06,07,08,09,10,11,12,1.0,1.0,1.0*30
$GPRMC,233811.977,A,5231.182,N,01321.620,E,000.2,006.4,080623,000.0,W*7D
$GPGGA,233812.977,5231.182,N,01321.620,E,1,12,1.0,0.0,M,0.0,M,,*65
$GPGSA,A,3,01,02,03,04,05,06,07,08,09,10,11,12,1.0,1.0,1.0*30
$GPRMC,233812.977,A,5231.182,N,01321.620,E,000.2,006.4,080623,000.0,W*7E
$GPGGA,233813.977,5231.182,N,01321.620,E,1,12,1.0,0.0,M,0.0,M,,*64
$GPGSA,A,3,01,02,03,04,05,06,07,08,09,10,11,12,1.0,1.0,1.0*30
$GPRMC,233813.977,A,5231.182,N,01321.620,E,000.2,006.4,080623,000.0,W*7F
$GPGGA,233814.977,5231.182,N,01321.620,E,1,12,1.0,0.0,M,0.0,M,,*63
$GPGSA,A,3,01,02,03,04,05,06,07,08,09,10,11,12,1.0,1.0,1.0*30
$GPRMC,233814.977,A,5231.182,N,01321.620,E,000.2,006.4,080623,000.0,W*78
$GPGGA,233815.977,5231.182,N,01321.620,E,1,12,1.0,0.0,M,0.0,M,,*62
$GPGSA,A,3,01,02,03,04,05,06,07,08,09,10,11,12,1.0,1.0,1.0*30
$GPRMC,233815.977,A,5231.182,N,01321.620,E,000.2,006.4,080623,000.0,W*79
$GPGGA,233816.977,5231.182,N,01321.620,E,1,12,1.0,0.0,M,0.0,M,,*61
$GPGSA,A,3,01,02,03,04,05,06,07,08,09,10,11,12,1.0,1.0,1.0*30
$GPRMC,233816.977,A,5231.182,N,01321.620,E,000.2,006.4,080623,000.0,W*7A
$GPGGA,233817.977,5231.182,N,01321.620,E,1,12,1.0,0.0,M,0.0,M,,*60
$GPGSA,A,3,01,02,03,04,05,06,07,08,09,10,11,12,1.0,1.0,1.0*30
$GPRMC,233817.977,A,5231.182,N,01321.620,E,000.2,006.4,080623,000.0,W*7B
$GPGGA,233818.977,5231.182,N,01321.620,E,1,12,1.0,0.0,M,0.0,M,,*6F
$GPGSA,A,3,01,02,03,04,05,06,07,08,09,10,11,12,1.0,1.0,1.0*30
$GPRMC,233818.977,A,5231.182,N,01321.620,E,000.2,006.4,080623,000.0,W*74
$GPGGA,233819.977,5231.182,N,01321.620,E,1,12,1.0,0.0,M,0.0,M,,*6E
$GPGSA,A,3,01,02,03,04,05,06,07,08,09,10,11,12,1.0,1.0,1.0*30
$GPRMC,233819.977,A,5231.182,N,01321.620,E,000.2,006.4,080623,000.0,W*75
$GPGGA,233820.977,5231.182,N,01321.620,E,1,12,1.0,0.0,M,0.0,M,,*64
$GPGSA,A,3,01,02,03,04,05,06,07,08,09,10,11,12,1.0,1.0,1.0*30
$GPRMC,233820.977,A,5231.182,N,01321.620,E,000.2,006.4,080623,000.0,W*7F
$GPGGA,233821.977,5231.182,N,01321.620,E,1,12,1.0,0.0,M,0.0,M,,*65
$GPGSA,A,3,01,02,03,04,05,06,07,08,09,10,11,12,1.0,1.0,1.0*30
$GPRMC,233821.977,A,5231.182,N,01321.620,E,000.2,006.4,080623,000.0,W*7E
$GPGGA,233822.977,5231.182,N,01321.620,E,1,12,1.0,0.0,M,0.0,M,,*66
$GPGSA,A,3,01,02,03,04,05,06,07,08,09,10,11,12,1.0,1.0,1.0*30
$GPRMC,233822.977,A,5231.182,N,01321.620,E,000.2,006.4,080623,000.0,W*7D
$GPGGA,233823.977,5231.182,N,01321.620,E,1,12,1.0,0.0,M,0.0,M,,*67
$GPGSA,A,3,01,02,03,04,05,06,07,08,09,10,11,12,1.0,1.0,1.0*30
$GPRMC,233823.977,A,5231.182,N,01321.620,E,000.2,006.4,080623,000.0,W*7C
$GPGGA,233824.977,5231.182,N,01321.620,E,1,12,1.0,0.0,M,0.0,M,,*60
$GPGSA,A,3,01,02,03,04,05,06,07,08,09,10,11,12,1.0,1.0,1.0*30
$GPRMC,233824.977,A,5231.182,N,01321.620,E,000.2,006.4,080623,000.0,W*7B
$GPGGA,233825.977,5231.182,N,01321.620,E,1,12,1.0,0.0,M,0.0,M,,*61
$GPGSA,A,3,01,02,03,04,05,06,07,08,09,10,11,12,1.0,1.0,1.0*30
$GPRMC,233825.977,A,5231.182,N,01321.620,E,000.2,006.4,080623,000.0,W*7A
$GPGGA,233826.977,5231.182,N,01321.620,E,1,12,1.0,0.0,M,0.0,M,,*62
$GPGSA,A,3,01,02,03,04,05,06,07,08,09,10,11,12,1.0,1.0,1.0*30
$GPRMC,233826.977,A,5231.182,N,01321.620,E,000.2,006.4,080623,000.0,W*79
$GPGGA,233827.977,5231.182,N,01321.620,E,1,12,1.0,0.0,M,0.0,M,,*63
$GPGSA,A,3,01,02,03,04,05,06,07,08,09,10,11,12,1.0,1.0,1.0*30
$GPRMC,233827.977,A,5231.182,N,01321.620,E,000.2,006.4,080623,000.0,W*78
$GPGGA,233828.977,5231.183,N,01321.620,E,1,12,1.0,0.0,M,0.0,M,,*6D
$GPGSA,A,3,01,02,03,04,05,06,07,08,09,10,11,12,1.0,1.0,1.0*30
$GPRMC,233828.977,A,5231.183,N,01321.620,E,000.2,006.4,080623,000.0,W*76
$GPGGA,233829.977,5231.183,N,01321.620,E,1,12,1.0,0.0,M,0.0,M,,*6C
$GPGSA,A,3,01,02,03,04,05,06,07,08,09,10,11,12,1.0,1.0,1.0*30
$GPRMC,233829.977,A,5231.183,N,01321.620,E,000.2,006.4,080623,000.0,W*77
$GPGGA,233830.977,5231.183,N,01321.620,E,1,12,1.0,0.0,M,0.0,M,,*64
$GPGSA,A,3,01,02,03,04,05,06,07,08,09,10,11,12,1.0,1.0,1.0*30
$GPRMC,233830.977,A,5231.183,N,01321.620,E,000.2,006.4,080623,000.0,W*7F
$GPGGA,233831.977,5231.183,N,01321.620,E,1,12,1.0,0.0,M,0.0,M,,*65
$GPGSA,A,3,01,02,03,04,05,06,07,08,09,10,11,12,1.0,1.0,1.0*30
$GPRMC,233831.977,A,5231.183,N,01321.620,E,000.2,006.4,080623,000.0,W*7E
$GPGGA,233832.977,5231.183,N,01321.620,E,1,12,1.0,0.0,M,0.0,M,,*66
$GPGSA,A,3,01,02,03,04,05,06,07,08,09,10,11,12,1.0,1.0,1.0*30
$GPRMC,233832.977,A,5231.183,N,01321.620,E,000.2,006.4,080623,000.0,W*7D
$GPGGA,233833.977,5231.183,N,01321.620,E,1,12,1.0,0.0,M,0.0,M,,*67
$GPGSA,A,3,01,02,03,04,05,06,07,08,09,10,11,12,1.0,1.0,1.0*30
$GPRMC,233833.977,A,5231.183,N,01321.620,E,000.2,006.4,080623,000.0,W*7C
$GPGGA,233834.977,5231.183,N,01321.620,E,1,12,1.0,0.0,M,0.0,M,,*60
$GPGSA,A,3,01,02,03,04,05,06,07,08,09,10,11,12,1.0,1.0,1.0*30
$GPRMC,233834.977,A,5231.183,N,01321.620,E,000.2,006.4,080623,000.0,W*7B
$GPGGA,233835.977,5231.183,N,01321.620,E,1,12,1.0,0.0,M,0.0,M,,*61
$GPGSA,A,3,01,02,03,04,05,06,07,08,09,10,11,12,1.0,1.0,1.0*30
$GPRMC,233835.977,A,5231.183,N,01321.620,E,000.2,006.4,080623,000.0,W*7A
$GPGGA,233836.977,5231.183,N,01321.620,E,1,12,1.0,0.0,M,0.0,M,,*62
$GPGSA,A,3,01,02,03,04,05,06,07,08,09,10,11,12,1.0,1.0,1.0*30
$GPRMC,233836.977,A,5231.183,N,01321.620,E,000.2,006.4,080623,000.0,W*79
$GPGGA,233837.977,5231.183,N,01321.620,E,1,12,1.0,0.0,M,0.0,M,,*63
$GPGSA,A,3,01,02,03,04,05,06,07,08,09,10,11,12,1.0,1.0,1.0*30
$GPRMC,233837.977,A,5231.183,N,01321.620,E,000.2,006.4,080623,000.0,W*78
$GPGGA,233838.977,5231.183,N,01321.620,E,1,12,1.0,0.0,M,0.0,M,,*6C
$GPGSA,A,3,01,02,03,04,05,06,07,08,09,10,11,12,1.0,1.0,1.0*30
$GPRMC,233838.977,A,5231.183,N,01321.620,E,000.2,006.4,080623,000.0,W*77
$GPGGA,233839.977,5231.183,N,01321.620,E,1,12,1.0,0.0,M,0.0,M,,*6D
$GPGSA,A,3,01,02,03,04,05,06,07,08,09,10,11,12,1.0,1.0,1.0*30
$GPRMC,233839.977,A,5231.183,N,01321.620,E,000.2,006.4,080623,000.0,W*76
$GPGGA,233840.977,5231.183,N,01321.620,E,1,12,1.0,0.0,M,0.0,M,,*63
$GPGSA,A,3,01,02,03,04,05,06,07,08,09,10,11,12,1.0,1.0,1.0*30
$GPRMC,233840.977,A,5231.183,N,01321.620,E,000.2,006.4,080623,000.0,W*78
$GPGGA,233841.977,5231.183,N,01321.620,E,1,12,1.0,0.0,M,0.0,M,,*62
$GPGSA,A,3,01,02,03,04,05,06,07,08,09,10,11,12,1.0,1.0,1.0*30
$GPRMC,233841.977,A,5231.183,N,01321.620,E,000.2,006.4,080623,000.0,W*79
$GPGGA,233842.977,5231.183,N,01321.620,E,1,12,1.0,0.0,M,0.0,M,,*61
$GPGSA,A,3,01,02,03,04,05,06,07,08,09,10,11,12,1.0,1.0,1.0*30
$GPRMC,233842.977,A,5231.183,N,01321.620,E,000.2,006.4,080623,000.0,W*7A
$GPGGA,233843.977,5231.183,N,01321.620,E,1,12,1.0,0.0,M,0.0,M,,*60
$GPGSA,A,3,01,02,03,04,05,06,07,08,09,10,11,12,1.0,1.0,1.0*30
$GPRMC,233843.977,A,5231.183,N,01321.620,E,000.2,006.4,080623,000.0,W*7B
$GPGGA,233844.977,5231.183,N,01321.620,E,1,12,1.0,0.0,M,0.0,M,,*67
$GPGSA,A,3,01,02,03,04,05,06,07,08,09,10,11,12,1.0,1.0,1.0*30
$GPRMC,233844.977,A,5231.183,N,01321.620,E,000.2,006.4,080623,000.0,W*7C
$GPGGA,233845.977,5231.183,N,01321.620,E,1,12,1.0,0.0,M,0.0,M,,*66
$GPGSA,A,3,01,02,03,04,05,06,07,08,09,10,11,12,1.0,1.0,1.0*30
$GPRMC,233845.977,A,5231.183,N,01321.620,E,000.2,006.4,080623,000.0,W*7D
$GPGGA,233846.977,5231.184,N,01321.620,E,1,12,1.0,0.0,M,0.0,M,,*62
$GPGSA,A,3,01,02,03,04,05,06,07,08,09,10,11,12,1.0,1.0,1.0*30
$GPRMC,233846.977,A,5231.184,N,01321.620,E,000.2,006.4,080623,000.0,W*79
$GPGGA,233847.977,5231.184,N,01321.620,E,1,12,1.0,0.0,M,0.0,M,,*63
$GPGSA,A,3,01,02,03,04,05,06,07,08,09,10,11,12,1.0,1.0,1.0*30
$GPRMC,233847.977,A,5231.184,N,01321.620,E,000.2,006.4,080623,000.0,W*78
$GPGGA,233848.977,5231.184,N,01321.620,E,1,12,1.0,0.0,M,0.0,M,,*6C
$GPGSA,A,3,01,02,03,04,05,06,07,08,09,10,11,12,1.0,1.0,1.0*30
$GPRMC,233848.977,A,5231.184,N,01321.620,E,000.2,006.4,080623,000.0,W*77
$GPGGA,233849.977,5231.184,N,01321.620,E,1,12,1.0,0.0,M,0.0,M,,*6D
$GPGSA,A,3,01,02,03,04,05,06,07,08,09,10,11,12,1.0,1.0,1.0*30
$GPRMC,233849.977,A,5231.184,N,01321.620,E,000.2,006.4,080623,000.0,W*76
$GPGGA,233850.977,5231.184,N,01321.620,E,1,12,1.0,0.0,M,0.0,M,,*65
$GPGSA,A,3,01,02,03,04,05,06,07,08,09,10,11,12,1.0,1.0,1.0*30
$GPRMC,233850.977,A,5231.184,N,01321.620,E,000.2,006.4,080623,000.0,W*7E
$GPGGA,233851.977,5231.184,N,01321.620,E,1,12,1.0,0.0,M,0.0,M,,*64
$GPGSA,A,3,01,02,03,04,05,06,07,08,09,10,11,12,1.0,1.0,1.0*30
$GPRMC,233851.977,A,5231.184,N,01321.620,E,000.2,006.4,080623,000.0,W*7F
$GPGGA,233852.977,5231.184,N,01321.620,E,1,12,1.0,0.0,M,0.0,M,,*67
$GPGSA,A,3,01,02,03,04,05,06,07,08,09,10,11,12,1.0,1.0,1.0*30
$GPRMC,233852.977,A,5231.184,N,01321.620,E,000.2,006.4,080623,000.0,W*7C
$GPGGA,233853.977,5231.184,N,01321.620,E,1,12,1.0,0.0,M,0.0,M,,*66
$GPGSA,A,3,01,02,03,04,05,06,07,08,09,10,11,12,1.0,1.0,1.0*30
$GPRMC,233853.977,A,5231.184,N,01321.620,E,000.2,006.4,080623,000.0,W*7D
$GPGGA,233854.977,5231.184,N,01321.620,E,1,12,1.0,0.0,M,0.0,M,,*61
$GPGSA,A,3,01,02,03,04,05,06,07,08,09,10,11,12,1.0,1.0,1.0*30
$GPRMC,233854.977,A,5231.184,N,01321.620,E,000.2,006.4,080623,000.0,W*7A
$GPGGA,233855.977,5231.184,N,01321.620,E,1,12,1.0,0.0,M,0.0,M,,*60
$GPGSA,A,3,01,02,03,04,05,06,07,08,09,10,11,12,1.0,1.0,1.0*30
$GPRMC,233855.977,A,5231.184,N,01321.620,E,000.2,006.4,080623,000.0,W*7B
$GPGGA,233856.977,5231.184,N,01321.620,E,1,12,1.0,0.0,M,0.0,M,,*63
$GPGSA,A,3,01,02,03,04,05,06,07,08,09,10,11,12,1.0,1.0,1.0*30
$GPRMC,233856.977,A,5231.184,N,01321.620,E,000.2,006.4,080623,000.0,W*78
$GPGGA,233857.977,5231.184,N,01321.620,E,1,12,1.0,0.0,M,0.0,M,,*62
$GPGSA,A,3,01,02,03,04,05,06,07,08,09,10,11,12,1.0,1.0,1.0*30
$GPRMC,233857.977,A,5231.184,N,01321.620,E,000.2,006.4,080623,000.0,W*79
$GPGGA,233858.977,5231.184,N,01321.620,E,1,12,1.0,0.0,M,0.0,M,,*6D
$GPGSA,A,3,01,02,03,04,05,06,07,08,09,10,11,12,1.0,1.0,1.0*30
$GPRMC,233858.977,A,5231.184,N,01321.620,E,000.2,006.4,080623,000.0,W*76
$GPGGA,233859.977,5231.184,N,01321.620,E,1,12,1.0,0.0,M,0.0,M,,*6C
$GPGSA,A,3,01,02,03,04,05,06,07,08,09,10,11,12,1.0,1.0,1.0*30
$GPRMC,233859.977,A,5231.184,N,01321.620,E,000.2,006.4,080623,000.0,W*77
$GPGGA,233900.977,5231.184,N,01321.620,E,1,12,1.0,0.0,M,0.0,M,,*61
$GPGSA,A,3,01,02,03,04,05,06,07,08,09,10,11,12,1.0,1.0,1.0*30
$GPRMC,233900.977,A,5231.184,N,01321.620,E,000.2,006.4,080623,000.0,W*7A
$GPGGA,233901.977,5231.184,N,01321.620,E,1,12,1.0,0.0,M,0.0,M,,*60
$GPGSA,A,3,01,02,03,04,05,06,07,08,09,10,11,12,1.0,1.0,1.0*30
$GPRMC,233901.977,A,5231.184,N,01321.620,E,000.2,006.4,080623,000.0,W*7B
$GPGGA,233902.977,5231.184,N,01321.620,E,1,12,1.0,0.0,M,0.0,M,,*63
$GPGSA,A,3,01,02,03,04,05,06,07,08,09,10,11,12,1.0,1.0,1.0*30
$GPRMC,233902.977,A,5231.184,N,01321.620,E,000.2,006.4,080623,000.0,W*78
$GPGGA,233903.977,5231.184,N,01321.620,E,1,12,1.0,0.0,M,0.0,M,,*62
$GPGSA,A,3,01,02,03,04,05,06,07,08,09,10,11,12,1.0,1.0,1.0*30
$GPRMC,233903.977,A,5231.184,N,01321.620,E,000.2,006.4,080623,000.0,W*79
$GPGGA,233904.977,5231.184,N,01321.620,E,1,12,1.0,0.0,M,0.0,M,,*65
$GPGSA,A,3,01,02,03,04,05,06,07,08,09,10,11,12,1.0,1.0,1.0*30
$GPRMC,233904.977,A,5231.184,N,01321.620,E,000.2,006.4,080623,000.0,W*7E
$GPGGA,233905.977,5231.185,N,01321.620,E,1,12,1.0,0.0,M,0.0,M,,*65
$GPGSA,A,3,01,02,03,04,05,06,07,08,09,10,11,12,1.0,1.0,1.0*30
$GPRMC,233905.977,A,5231.185,N,01321.620,E,000.2,006.4,080623,000.0,W*7E
$GPGGA,233906.977,5231.185,N,01321.620,E,1,12,1.0,0.0,M,0.0,M,,*66
$GPGSA,A,3,01,02,03,04,05,06,07,08,09,10,11,12,1.0,1.0,1.0*30
$GPRMC,233906.977,A,5231.185,N,01321.620,E,000.2,006.4,080623,000.0,W*7D
$GPGGA,233907.977,5231.185,N,01321.620,E,1,12,1.0,0.0,M,0.0,M,,*67
$GPGSA,A,3,01,02,03,04,05,06,07,08,09,10,11,12,1.0,1.0,1.0*30
$GPRMC,233907.977,A,5231.185,N,01321.620,E,000.2,006.4,080623,000.0,W*7C
$GPGGA,233908.977,5231.185,N,01321.620,E,1,12,1.0,0.0,M,0.0,M,,*68
$GPGSA,A,3,01,02,03,04,05,06,07,08,09,10,11,12,1.0,1.0,1.0*30
$GPRMC,233908.977,A,5231.185,N,01321.620,E,000.2,006.4,080623,000.0,W*73
$GPGGA,233909.977,5231.185,N,01321.620,E,1,12,1.0,0.0,M,0.0,M,,*69
$GPGSA,A,3,01,02,03,04,05,06,07,08,09,10,11,12,1.0,1.0,1.0*30
$GPRMC,233909.977,A,5231.185,N,01321.620,E,000.2,006.4,080623,000.0,W*72
$GPGGA,233910.977,5231.185,N,01321.620,E,1,12,1.0,0.0,M,0.0,M,,*61
$GPGSA,A,3,01,02,03,04,05,06,07,08,09,10,11,12,1.0,1.0,1.0*30
$GPRMC,233910.977,A,5231.185,N,01321.620,E,000.2,006.4,080623,000.0,W*7A
$GPGGA,233911.977,5231.185,N,01321.620,E,1,12,1.0,0.0,M,0.0,M,,*60
$GPGSA,A,3,01,02,03,04,05,06,07,08,09,10,11,12,1.0,1.0,1.0*30
$GPRMC,233911.977,A,5231.185,N,01321.620,E,000.2,006.4,080623,000.0,W*7B
$GPGGA,233912.977,5231.185,N,01321.620,E,1,12,1.0,0.0,M,0.0,M,,*63
$GPGSA,A,3,01,02,03,04,05,06,07,08,09,10,11,12,1.0,1.0,1.0*30
$GPRMC,233912.977,A,5231.185,N,01321.620,E,000.2,006.4,080623,000.0,W*78
$GPGGA,233913.977,5231.185,N,01321.620,E,1,12,1.0,0.0,M,0.0,M,,*62
$GPGSA,A,3,01,02,03,04,05,06,07,08,09,10,11,12,1.0,1.0,1.0*30
$GPRMC,233913.977,A,5231.185,N,01321.620,E,000.2,006.4,080623,000.0,W*79
$GPGGA,233914.977,5231.185,N,01321.620,E,1,12,1.0,0.0,M,0.0,M,,*65
$GPGSA,A,3,01,02,03,04,05,06,07,08,09,10,11,12,1.0,1.0,1.0*30
$GPRMC,233914.977,A,5231.185,N,01321.620,E,000.2,006.4,080623,000.0,W*7E
$GPGGA,233915.977,5231.185,N,01321.620,E,1,12,1.0,0.0,M,0.0,M,,*64
$GPGSA,A,3,01,02,03,04,05,06,07,08,09,10,11,12,1.0,1.0,1.0*30
$GPRMC,233915.977,A,5231.185,N,01321.620,E,000.2,006.4,080623,000.0,W*7F
$GPGGA,233916.977,5231.185,N,01321.620,E,1,12,1.0,0.0,M,0.0,M,,*67
$GPGSA,A,3,01,02,03,04,05,06,07,08,09,10,11,12,1.0,1.0,1.0*30
$GPRMC,233916.977,A,5231.185,N,01321.620,E,000.2,006.4,080623,000.0,W*7C
$GPGGA,233917.977,5231.185,N,01321.620,E,1,12,1.0,0.0,M,0.0,M,,*66
$GPGSA,A,3,01,02,03,04,05,06,07,08,09,10,11,12,1.0,1.0,1.0*30
$GPRMC,233917.977,A,5231.185,N,01321.620,E,000.2,006.4,080623,000.0,W*7D
$GPGGA,233918.977,5231.185,N,01321.620,E,1,12,1.0,0.0,M,0.0,M,,*69
$GPGSA,A,3,01,02,03,04,05,06,07,08,09,10,11,12,1.0,1.0,1.0*30
$GPRMC,233918.977,A,5231.185,N,01321.620,E,000.2,006.4,080623,000.0,W*72
$GPGGA,233919.977,5231.185,N,01321.620,E,1,12,1.0,0.0,M,0.0,M,,*68
$GPGSA,A,3,01,02,03,04,05,06,07,08,09,10,11,12,1.0,1.0,1.0*30
$GPRMC,233919.977,A,5231.185,N,01321.620,E,000.2,006.4,080623,000.0,W*73
$GPGGA,233920.977,5231.185,N,01321.620,E,1,12,1.0,0.0,M,0.0,M,,*62
$GPGSA,A,3,01,02,03,04,05,06,07,08,09,10,11,12,1.0,1.0,1.0*30
$GPRMC,233920.977,A,5231.185,N,01321.620,E,000.2,006.4,080623,000.0,W*79
$GPGGA,233921.977,5231.185,N,01321.620,E,1,12,1.0,0.0,M,0.0,M,,*63
$GPGSA,A,3,01,02,03,04,05,06,07,08,09,10,11,12,1.0,1.0,1.0*30
$GPRMC,233921.977,A,5231.185,N,01321.620,E,000.2,006.4,080623,000.0,W*78
$GPGGA,233922.977,5231.185,N,01321.620,E,1,12,1.0,0.0,M,0.0,M,,*60
$GPGSA,A,3,01,02,03,04,05,06,07,08,09,10,11,12,1.0,1.0,1.0*30
$GPRMC,233922.977,A,5231.185,N,01321.620,E,000.2,006.4,080623,000.0,W*7B
$GPGGA,233923.977,5231.185,N,01321.620,E,1,12,1.0,0.0,M,0.0,M,,*61
$GPGSA,A,3,01,02,03,04,05,06,07,08,09,10,11,12,1.0,1.0,1.0*30
$GPRMC,233923.977,A,5231.185,N,01321.620,E,000.2,006.4,080623,000.0,W*7A
$GPGGA,233924.977,5231.186,N,01321.620,E,1,12,1.0,0.0,M,0.0,M,,*65
$GPGSA,A,3,01,02,03,04,05,06,07,08,09,10,11,12,1.0,1.0,1.0*30
$GPRMC,233924.977,A,5231.186,N,01321.620,E,000.2,006.4,080623,000.0,W*7E
$GPGGA,233925.977,5231.186,N,01321.620,E,1,12,1.0,0.0,M,0.0,M,,*64
$GPGSA,A,3,01,02,03,04,05,06,07,08,09,10,11,12,1.0,1.0,1.0*30
$GPRMC,233925.977,A,5231.186,N,01321.620,E,000.2,006.4,080623,000.0,W*7F
$GPGGA,233926.977,5231.186,N,01321.620,E,1,12,1.0,0.0,M,0.0,M,,*67
$GPGSA,A,3,01,02,03,04,05,06,07,08,09,10,11,12,1.0,1.0,1.0*30
$GPRMC,233926.977,A,5231.186,N,01321.620,E,000.2,006.4,080623,000.0,W*7C
$GPGGA,233927.977,5231.186,N,01321.620,E,1,12,1.0,0.0,M,0.0,M,,*66
$GPGSA,A,3,01,02,03,04,05,06,07,08,09,10,11,12,1.0,1.0,1.0*30
$GPRMC,233927.977,A,5231.186,N,01321.620,E,000.2,006.4,080623,000.0,W*7D
$GPGGA,233928.977,5231.186,N,01321.620,E,1,12,1.0,0.0,M,0.0,M,,*69
$GPGSA,A,3,01,02,03,04,05,06,07,08,09,10,11,12,1.0,1.0,1.0*30
$GPRMC,233928.977,A,5231.186,N,01321.620,E,000.2,006.4,080623,000.0,W*72
$GPGGA,233929.977,5231.186,N,01321.620,E,1,12,1.0,0.0,M,0.0,M,,*68
$GPGSA,A,3,01,02,03,04,05,06,07,08,09,10,11,12,1.0,1.0,1.0*30
$GPRMC,233929.977,A,5231.186,N,01321.620,E,000.2,006.4,080623,000.0,W*73
$GPGGA,233930.977,5231.186,N,01321.620,E,1,12,1.0,0.0,M,0.0,M,,*60
$GPGSA,A,3,01,02,03,04,05,06,07,08,09,10,11,12,1.0,1.0,1.0*30
$GPRMC,233930.977,A,5231.186,N,01321.620,E,000.2,006.4,080623,000.0,W*7B
$GPGGA,233931.977,5231.186,N,01321.621,E,1,12,1.0,0.0,M,0.0,M,,*60
$GPGSA,A,3,01,02,03,04,05,06,07,08,09,10,11,12,1.0,1.0,1.0*30
$GPRMC,233931.977,A,5231.186,N,01321.621,E,000.2,006.4,080623,000.0,W*7B
$GPGGA,233932.977,5231.186,N,01321.621,E,1,12,1.0,0.0,M,0.0,M,,*63
$GPGSA,A,3,01,02,03,04,05,06,07,08,09,10,11,12,1.0,1.0,1.0*30
$GPRMC,233932.977,A,5231.186,N,01321.621,E,000.2,006.4,080623,000.0,W*78
$GPGGA,233933.977,5231.186,N,01321.621,E,1,12,1.0,0.0,M,0.0,M,,*62
$GPGSA,A,3,01,02,03,04,05,06,07,08,09,10,11,12,1.0,1.0,1.0*30
$GPRMC,233933.977,A,5231.186,N,01321.621,E,000.2,006.4,080623,000.0,W*79
$GPGGA,233934.977,5231.186,N,01321.621,E,1,12,1.0,0.0,M,0.0,M,,*65
$GPGSA,A,3,01,02,03,04,05,06,07,08,09,10,11,12,1.0,1.0,1.0*30
$GPRMC,233934.977,A,5231.186,N,01321.621,E,000.2,006.4,080623,000.0,W*7E
$GPGGA,233935.977,5231.186,N,01321.621,E,1,12,1.0,0.0,M,0.0,M,,*64
$GPGSA,A,3,01,02,03,04,05,06,07,08,09,10,11,12,1.0,1.0,1.0*30
$GPRMC,233935.977,A,5231.186,N,01321.621,E,000.2,006.4,080623,000.0,W*7F
$GPGGA,233936.977,5231.186,N,01321.621,E,1,12,1.0,0.0,M,0.0,M,,*67
$GPGSA,A,3,01,02,03,04,05,06,07,08,09,10,11,12,1.0,1.0,1.0*30
$GPRMC,233936.977,A,5231.186,N,01321.621,E,000.2,006.4,080623,000.0,W*7C
$GPGGA,233937.977,5231.186,N,01321.621,E,1,12,1.0,0.0,M,0.0,M,,*66
$GPGSA,A,3,01,02,03,04,05,06,07,08,09,10,11,12,1.0,1.0,1.0*30
$GPRMC,233937.977,A,5231.186,N,01321.621,E,000.2,006.4,080623,000.0,W*7D
$GPGGA,233938.977,5231.186,N,01321.621,E,1,12,1.0,0.0,M,0.0,M,,*69
$GPGSA,A,3,01,02,03,04,05,06,07,08,09,10,11,12,1.0,1.0,1.0*30
$GPRMC,233938.977,A,5231.186,N,01321.621,E,000.2,006.4,080623,000.0,W*72
$GPGGA,233939.977,5231.186,N,01321.621,E,1,12,1.0,0.0,M,0.0,M,,*68
$GPGSA,A,3,01,02,03,04,05,06,07,08,09,10,11,12,1.0,1.0,1.0*30
$GPRMC,233939.977,A,5231.186,N,01321.621,E,000.2,006.4,080623,000.0,W*73
$GPGGA,233940.977,5231.186,N,01321.621,E,1,12,1.0,0.0,M,0.0,M,,*66
$GPGSA,A,3,01,02,03,04,05,06,07,08,09,10,11,12,1.0,1.0,1.0*30
$GPRMC,233940.977,A,5231.186,N,01321.621,E,000.2,006.4,080623,000.0,W*7D
$GPGGA,233941.977,5231.186,N,01321.621,E,1,12,1.0,0.0,M,0.0,M,,*67
$GPGSA,A,3,01,02,03,04,05,06,07,08,09,10,11,12,1.0,1.0,1.0*30
$GPRMC,233941.977,A,5231.186,N,01321.621,E,000.2,006.4,080623,000.0,W*7C
$GPGGA,233942.977,5231.187,N,01321.621,E,1,12,1.0,0.0,M,0.0,M,,*65
$GPGSA,A,3,01,02,03,04,05,06,07,08,09,10,11,12,1.0,1.0,1.0*30
$GPRMC,233942.977,A,5231.187,N,01321.621,E,000.2,006.4,080623,000.0,W*7E
$GPGGA,233943.977,5231.187,N,01321.621,E,1,12,1.0,0.0,M,0.0,M,,*64
$GPGSA,A,3,01,02,03,04,05,06,07,08,09,10,11,12,1.0,1.0,1.0*30
$GPRMC,233943.977,A,5231.187,N,01321.621,E,000.2,006.4,080623,000.0,W*7F
$GPGGA,233944.977,5231.187,N,01321.621,E,1,12,1.0,0.0,M,0.0,M,,*63
$GPGSA,A,3,01,02,03,04,05,06,07,08,09,10,11,12,1.0,1.0,1.0*30
$GPRMC,233944.977,A,5231.187,N,01321.621,E,000.2,006.4,080623,000.0,W*78
$GPGGA,233945.977,5231.187,N,01321.621,E,1,12,1.0,0.0,M,0.0,M,,*62
$GPGSA,A,3,01,02,03,04,05,06,07,08,09,10,11,12,1.0,1.0,1.0*30
$GPRMC,233945.977,A,5231.187,N,01321.621,E,000.2,006.4,080623,000.0,W*79
$GPGGA,233946.977,5231.187,N,01321.621,E,1,12,1.0,0.0,M,0.0,M,,*61
$GPGSA,A,3,01,02,03,04,05,06,07,08,09,10,11,12,1.0,1.0,1.0*30
$GPRMC,233946.977,A,5231.187,N,01321.621,E,000.2,006.4,080623,000.0,W*7A
$GPGGA,233947.977,5231.187,N,01321.621,E,1,12,1.0,0.0,M,0.0,M,,*60
$GPGSA,A,3,01,02,03,04,05,06,07,08,09,10,11,12,1.0,1.0,1.0*30
$GPRMC,233947.977,A,5231.187,N,01321.621,E,000.2,006.4,080623,000.0,W*7B
$GPGGA,233948.977,5231.187,N,01321.621,E,1,12,1.0,0.0,M,0.0,M,,*6F
$GPGSA,A,3,01,02,03,04,05,06,07,08,09,10,11,12,1.0,1.0,1.0*30
$GPRMC,233948.977,A,5231.187,N,01321.621,E,000.2,006.4,080623,000.0,W*74
$GPGGA,233949.977,5231.187,N,01321.621,E,1,12,1.0,0.0,M,0.0,M,,*6E
$GPGSA,A,3,01,02,03,04,05,06,07,08,09,10,11,12,1.0,1.0,1.0*30
$GPRMC,233949.977,A,5231.187,N,01321.621,E,000.2,006.4,080623,000.0,W*75
$GPGGA,233950.977,5231.187,N,01321.621,E,1,12,1.0,0.0,M,0.0,M,,*66
$GPGSA,A,3,01,02,03,04,05,06,07,08,09,10,11,12,1.0,1.0,1.0*30
$GPRMC,233950.977,A,5231.187,N,01321.621,E,000.2,006.4,080623,000.0,W*7D
$GPGGA,233951.977,5231.187,N,01321.621,E,1,12,1.0,0.0,M,0.0,M,,*67
$GPGSA,A,3,01,02,03,04,05,06,07,08,09,10,11,12,1.0,1.0,1.0*30
$GPRMC,233951.977,A,5231.187,N,01321.621,E,000.2,006.4,080623,000.0,W*7C
$GPGGA,233952.977,5231.187,N,01321.621,E,1,12,1.0,0.0,M,0.0,M,,*64
$GPGSA,A,3,01,02,03,04,05,06,07,08,09,10,11,12,1.0,1.0,1.0*30
$GPRMC,233952.977,A,5231.187,N,01321.621,E,000.2,006.4,080623,000.0,W*7F
$GPGGA,233953.977,5231.187,N,01321.621,E,1,12,1.0,0.0,M,0.0,M,,*65
$GPGSA,A,3,01,02,03,04,05,06,07,08,09,10,11,12,1.0,1.0,1.0*30
$GPRMC,233953.977,A,5231.187,N,01321.621,E,000.2,006.4,080623,000.0,W*7E
$GPGGA,233954.977,5231.187,N,01321.621,E,1,12,1.0,0.0,M,0.0,M,,*62
$GPGSA,A,3,01,02,03,04,05,06,07,08,09,10,11,12,1.0,1.0,1.0*30
$GPRMC,233954.977,A,5231.187,N,01321.621,E,000.2,006.4,080623,000.0,W*79
$GPGGA,233955.977,5231.187,N,01321.621,E,1,12,1.0,0.0,M,0.0,M,,*63
$GPGSA,A,3,01,02,03,04,05,06,07,08,09,10,11,12,1.0,1.0,1.0*30
$GPRMC,233955.977,A,5231.187,N,01321.621,E,000.2,006.4,080623,000.0,W*78
$GPGGA,233956.977,5231.187,N,01321.621,E,1,12,1.0,0.0,M,0.0,M,,*60
$GPGSA,A,3,01,02,03,04,05,06,07,08,09,10,11,12,1.0,1.0,1.0*30
$GPRMC,233956.977,A,5231.187,N,01321.621,E,000.2,006.4,080623,000.0,W*7B
$GPGGA,233957.977,5231.187,N,01321.621,E,1,12,1.0,0.0,M,0.0,M,,*61
$GPGSA,A,3,01,02,03,04,05,06,07,08,09,10,11,12,1.0,1.0,1.0*30
$GPRMC,233957.977,A,5231.187,N,01321.621,E,000.2,006.4,080623,000.0,W*7A
$GPGGA,233958.977,5231.187,N,01321.621,E,1,12,1.0,0.0,M,0.0,M,,*6E
$GPGSA,A,3,01,02,03,04,05,06,07,08,09,10,11,12,1.0,1.0,1.0*30
$GPRMC,233958.977,A,5231.187,N,01321.621,E,000.2,006.4,080623,000.0,W*75
$GPGGA,233959.977,5231.187,N,01321.621,E,1,12,1.0,0.0,M,0.0,M,,*6F
$GPGSA,A,3,01,02,03,04,05,06,07,08,09,10,11,12,1.0,1.0,1.0*30
$GPRMC,233959.977,A,5231.187,N,01321.621,E,000.2,006.4,080623,000.0,W*74
$GPGGA,234000.977,5231.187,N,01321.621,E,1,12,1.0,0.0,M,0.0,M,,*6D
$GPGSA,A,3,01,02,03,04,05,06,07,08,09,10,11,12,1.0,1.0,1.0*30
$GPRMC,234000.977,A,5231.187,N,01321.621,E,000.2,006.4,080623,000.0,W*76
$GPGGA,234001.977,5231.188,N,01321.621,E,1,12,1.0,0.0,M,0.0,M,,*63
$GPGSA,A,3,01,02,03,04,05,06,07,08,09,10,11,12,1.0,1.0,1.0*30
$GPRMC,234001.977,A,5231.188,N,01321.621,E,000.2,006.4,080623,000.0,W*78
$GPGGA,234002.977,5231.188,N,01321.621,E,1,12,1.0,0.0,M,0.0,M,,*60
$GPGSA,A,3,01,02,03,04,05,06,07,08,09,10,11,12,1.0,1.0,1.0*30
$GPRMC,234002.977,A,5231.188,N,01321.621,E,000.2,006.4,080623,000.0,W*7B
$GPGGA,234003.977,5231.188,N,01321.621,E,1,12,1.0,0.0,M,0.0,M,,*61
$GPGSA,A,3,01,02,03,04,05,06,07,08,09,10,11,12,1.0,1.0,1.0*30
$GPRMC,234003.977,A,5231.188,N,01321.621,E,000.2,006.4,080623,000.0,W*7A
$GPGGA,234004.977,5231.188,N,01321.621,E,1,12,1.0,0.0,M,0.0,M,,*66
$GPGSA,A,3,01,02,03,04,05,06,07,08,09,10,11,12,1.0,1.0,1.0*30
$GPRMC,234004.977,A,5231.188,N,01321.621,E,000.2,006.4,080623,000.0,W*7D
$GPGGA,234005.977,5231.188,N,01321.621,E,1,12,1.0,0.0,M,0.0,M,,*67
$GPGSA,A,3,01,02,03,04,05,06,07,08,09,10,11,12,1.0,1.0,1.0*30
$GPRMC,234005.977,A,5231.188,N,01321.621,E,000.2,006.4,080623,000.0,W*7C
$GPGGA,234006.977,5231.188,N,01321.621,E,1,12,1.0,0.0,M,0.0,M,,*64
$GPGSA,A,3,01,02,03,04,05,06,07,08,09,10,11,12,1.0,1.0,1.0*30
$GPRMC,234006.977,A,5231.188,N,01321.621,E,000.2,006.4,080623,000.0,W*7F
$GPGGA,234007.977,5231.188,N,01321.621,E,1,12,1.0,0.0,M,0.0,M,,*65
$GPGSA,A,3,01,02,03,04,05,06,07,08,09,10,11,12,1.0,1.0,1.0*30
$GPRMC,234007.977,A,5231.188,N,01321.621,E,000.2,006.4,080623,000.0,W*7E
$GPGGA,234008.977,5231.188,N,01321.621,E,1,12,1.0,0.0,M,0.0,M,,*6A
$GPGSA,A,3,01,02,03,04,05,06,07,08,09,10,11,12,1.0,1.0,1.0*30
$GPRMC,234008.977,A,5231.188,N,01321.621,E,000.2,006.4,080623,000.0,W*71
$GPGGA,234009.977,5231.188,N,01321.621,E,1,12,1.0,0.0,M,0.0,M,,*6B
$GPGSA,A,3,01,02,03,04,05,06,07,08,09,10,11,12,1.0,1.0,1.0*30
$GPRMC,234009.977,A,5231.188,N,01321.621,E,000.2,006.4,080623,000.0,W*70
$GPGGA,234010.977,5231.188,N,01321.621,E,1,12,1.0,0.0,M,0.0,M,,*63
$GPGSA,A,3,01,02,03,04,05,06,07,08,09,10,11,12,1.0,1.0,1.0*30
$GPRMC,234010.977,A,5231.188,N,01321.621,E,000.2,006.4,080623,000.0,W*78
$GPGGA,234011.977,5231.188,N,01321.621,E,1,12,1.0,0.0,M,0.0,M,,*62
$GPGSA,A,3,01,02,03,04,05,06,07,08,09,10,11,12,1.0,1.0,1.0*30
$GPRMC,234011.977,A,5231.188,N,01321.621,E,000.2,006.4,080623,000.0,W*79
$GPGGA,234012.977,5231.188,N,01321.621,E,1,12,1.0,0.0,M,0.0,M,,*61
$GPGSA,A,3,01,02,03,04,05,06,07,08,09,10,11,12,1.0,1.0,1.0*30
$GPRMC,234012.977,A,5231.188,N,01321.621,E,000.2,006.4,080623,000.0,W*7A
$GPGGA,234013.977,5231.188,N,01321.621,E,1,12,1.0,0.0,M,0.0,M,,*60
$GPGSA,A,3,01,02,03,04,05,06,07,08,09,10,11,12,1.0,1.0,1.0*30
$GPRMC,234013.977,A,5231.188,N,01321.621,E,000.2,006.4,080623,000.0,W*7B
$GPGGA,234014.977,5231.188,N,01321.621,E,1,12,1.0,0.0,M,0.0,M,,*67
$GPGSA,A,3,01,02,03,04,05,06,07,08,09,10,11,12,1.0,1.0,1.0*30
$GPRMC,234014.977,A,5231.188,N,01321.621,E,000.2,006.4,080623,000.0,W*7C
$GPGGA,234015.977,5231.188,N,01321.621,E,1,12,1.0,0.0,M,0.0,M,,*66
$GPGSA,A,3,01,02,03,04,05,06,07,08,09,10,11,12,1.0,1.0,1.0*30
$GPRMC,234015.977,A,5231.188,N,01321.621,E,000.2,006.4,080623,000.0,W*7D
$GPGGA,234016.977,5231.188,N,01321.621,E,1,12,1.0,0.0,M,0.0,M,,*65
$GPGSA,A,3,01,02,03,04,05,06,07,08,09,10,11,12,1.0,1.0,1.0*30
$GPRMC,234016.977,A,5231.188,N,01321.621,E,000.2,006.4,080623,000.0,W*7E
$GPGGA,234017.977,5231.188,N,01321.621,E,1,12,1.0,0.0,M,0.0,M,,*64
$GPGSA,A,3,01,02,03,04,05,06,07,08,09,10,11,12,1.0,1.0,1.0*30
$GPRMC,234017.977,A,5231.188,N,01321.621,E,000.2,006.4,080623,000.0,W*7F
$GPGGA,234018.977,5231.188,N,01321.621,E,1,12,1.0,0.0,M,0.0,M,,*6B
$GPGSA,A,3,01,02,03,04,05,06,07,08,09,10,11,12,1.0,1.0,1.0*30
$GPRMC,234018.977,A,5231.188,N,01321.621,E,000.2,006.4,080623,000.0,W*70
$GPGGA,234019.977,5231.189,N,01321.621,E,1,12,1.0,0.0,M,0.0,M,,*6B
$GPGSA,A,3,01,02,03,04,05,06,07,08,09,10,11,12,1.0,1.0,1.0*30
$GPRMC,234019.977,A,5231.189,N,01321.621,E,000.2,006.4,080623,000.0,W*70
$GPGGA,234020.977,5231.189,N,01321.621,E,1,12,1.0,0.0,M,0.0,M,,*61
$GPGSA,A,3,01,02,03,04,05,06,07,08,09,10,11,12,1.0,1.0,1.0*30
$GPRMC,234020.977,A,5231.189,N,01321.621,E,000.2,006.4,080623,000.0,W*7A
$GPGGA,234021.977,5231.189,N,01321.621,E,1,12,1.0,0.0,M,0.0,M,,*60
$GPGSA,A,3,01,02,03,04,05,06,07,08,09,10,11,12,1.0,1.0,1.0*30
$GPRMC,234021.977,A,5231.189,N,01321.621,E,000.2,006.4,080623,000.0,W*7B
$GPGGA,234022.977,5231.189,N,01321.621,E,1,12,1.0,0.0,M,0.0,M,,*63
$GPGSA,A,3,01,02,03,04,05,06,07,08,09,10,11,12,1.0,1.0,1.0*30
$GPRMC,234022.977,A,5231.189,N,01321.621,E,000.2,006.4,080623,000.0,W*78
$GPGGA,234023.977,5231.189,N,01321.621,E,1,12,1.0,0.0,M,0.0,M,,*62
$GPGSA,A,3,01,02,03,04,05,06,07,08,09,10,11,12,1.0,1.0,1.0*30
$GPRMC,234023.977,A,5231.189,N,01321.621,E,000.2,006.4,080623,000.0,W*79
$GPGGA,234024.977,5231.189,N,01321.621,E,1,12,1.0,0.0,M,0.0,M,,*65
$GPGSA,A,3,01,02,03,04,05,06,07,08,09,10,11,12,1.0,1.0,1.0*30
$GPRMC,234024.977,A,5231.189,N,01321.621,E,000.2,006.4,080623,000.0,W*7E
$GPGGA,234025.977,5231.189,N,01321.621,E,1,12,1.0,0.0,M,0.0,M,,*64
$GPGSA,A,3,01,02,03,04,05,06,07,08,09,10,11,12,1.0,1.0,1.0*30
$GPRMC,234025.977,A,5231.189,N,01321.621,E,000.2,006.4,080623,000.0,W*7F
$GPGGA,234026.977,5231.189,N,01321.621,E,1,12,1.0,0.0,M,0.0,M,,*67
$GPGSA,A,3,01,02,03,04,05,06,07,08,09,10,11,12,1.0,1.0,1.0*30
$GPRMC,234026.977,A,5231.189,N,01321.621,E,000.2,006.4,080623,000.0,W*7C
$GPGGA,234027.977,5231.189,N,01321.621,E,1,12,1.0,0.0,M,0.0,M,,*66
$GPGSA,A,3,01,02,03,04,05,06,07,08,09,10,11,12,1.0,1.0,1.0*30
$GPRMC,234027.977,A,5231.189,N,01321.621,E,000.2,006.4,080623,000.0,W*7D
$GPGGA,234028.977,5231.189,N,01321.621,E,1,12,1.0,0.0,M,0.0,M,,*69
$GPGSA,A,3,01,02,03,04,05,06,07,08,09,10,11,12,1.0,1.0,1.0*30
$GPRMC,234028.977,A,5231.189,N,01321.621,E,000.2,006.4,080623,000.0,W*72
$GPGGA,234029.977,5231.189,N,01321.621,E,1,12,1.0,0.0,M,0.0,M,,*68
$GPGSA,A,3,01,02,03,04,05,06,07,08,09,10,11,12,1.0,1.0,1.0*30
$GPRMC,234029.977,A,5231.189,N,01321.621,E,000.2,006.4,080623,000.0,W*73
$GPGGA,234030.977,5231.189,N,01321.621,E,1,12,1.0,0.0,M,0.0,M,,*60
$GPGSA,A,3,01,02,03,04,05,06,07,08,09,10,11,12,1.0,1.0,1.0*30
$GPRMC,234030.977,A,5231.189,N,01321.621,E,000.2,006.4,080623,000.0,W*7B
$GPGGA,234031.977,5231.189,N,01321.621,E,1,12,1.0,0.0,M,0.0,M,,*61
$GPGSA,A,3,01,02,03,04,05,06,07,08,09,10,11,12,1.0,1.0,1.0*30
$GPRMC,234031.977,A,5231.189,N,01321.621,E,000.2,006.4,080623,000.0,W*7A
$GPGGA,234032.977,5231.189,N,01321.621,E,1,12,1.0,0.0,M,0.0,M,,*62
$GPGSA,A,3,01,02,03,04,05,06,07,08,09,10,11,12,1.0,1.0,1.0*30
$GPRMC,234032.977,A,5231.189,N,01321.621,E,000.2,006.4,080623,000.0,W*79
$GPGGA,234033.977,5231.189,N,01321.621,E,1,12,1.0,0.0,M,0.0,M,,*63
$GPGSA,A,3,01,02,03,04,05,06,07,08,09,10,11,12,1.0,1.0,1.0*30
$GPRMC,234033.977,A,5231.189,N,01321.621,E,000.2,006.4,080623,000.0,W*78
$GPGGA,234034.977,5231.189,N,01321.621,E,1,12,1.0,0.0,M,0.0,M,,*64
$GPGSA,A,3,01,02,03,04,05,06,07,08,09,10,11,12,1.0,1.0,1.0*30
$GPRMC,234034.977,A,5231.189,N,01321.621,E,000.2,006.4,080623,000.0,W*7F
$GPGGA,234035.977,5231.189,N,01321.621,E,1,12,1.0,0.0,M,0.0,M,,*65
$GPGSA,A,3,01,02,03,04,05,06,07,08,09,10,11,12,1.0,1.0,1.0*30
$GPRMC,234035.977,A,5231.189,N,01321.621,E,000.2,006.4,080623,000.0,W*7E
$GPGGA,234036.977,5231.189,N,01321.621,E,1,12,1.0,0.0,M,0.0,M,,*66
$GPGSA,A,3,01,02,03,04,05,06,07,08,09,10,11,12,1.0,1.0,1.0*30
$GPRMC,234036.977,A,5231.189,N,01321.621,E,000.2,006.4,080623,000.0,W*7D
$GPGGA,234037.977,5231.189,N,01321.621,E,1,12,1.0,0.0,M,0.0,M,,*67
$GPGSA,A,3,01,02,03,04,05,06,07,08,09,10,11,12,1.0,1.0,1.0*30
$GPRMC,234037.977,A,5231.189,N,01321.621,E,000.2,006.4,080623,000.0,W*7C
$GPGGA,234038.977,5231.190,N,01321.621,E,1,12,1.0,0.0,M,0.0,M,,*60
$GPGSA,A,3,01,02,03,04,05,06,07,08,09,10,11,12,1.0,1.0,1.0*30
$GPRMC,234038.977,A,5231.190,N,01321.621,E,000.2,006.4,080623,000.0,W*7B
$GPGGA,234039.977,5231.190,N,01321.621,E,1,12,1.0,0.0,M,0.0,M,,*61
$GPGSA,A,3,01,02,03,04,05,06,07,08,09,10,11,12,1.0,1.0,1.0*30
$GPRMC,234039.977,A,5231.190,N,01321.621,E,000.2,006.4,080623,000.0,W*7A
$GPGGA,234040.977,5231.190,N,01321.621,E,1,12,1.0,0.0,M,0.0,M,,*6F
$GPGSA,A,3,01,02,03,04,05,06,07,08,09,10,11,12,1.0,1.0,1.0*30
$GPRMC,234040.977,A,5231.190,N,01321.621,E,000.2,006.4,080623,000.0,W*74
$GPGGA,234041.977,5231.190,N,01321.621,E,1,12,1.0,0.0,M,0.0,M,,*6E
$GPGSA,A,3,01,02,03,04,05,06,07,08,09,10,11,12,1.0,1.0,1.0*30
$GPRMC,234041.977,A,5231.190,N,01321.621,E,000.2,006.4,080623,000.0,W*75
$GPGGA,234042.977,5231.190,N,01321.621,E,1,12,1.0,0.0,M,0.0,M,,*6D
$GPGSA,A,3,01,02,03,04,05,06,07,08,09,10,11,12,1.0,1.0,1.0*30
$GPRMC,234042.977,A,5231.190,N,01321.621,E,000.2,006.4,080623,000.0,W*76
