$GPGGA,015119.598,4355.412,N,07926.561,W,1,12,1.0,0.0,M,0.0,M,,*7D
$GPGSA,A,3,01,02,03,04,05,06,07,08,09,10,11,12,1.0,1.0,1.0*30
$GPRMC,015119.598,A,4355.412,N,07926.561,W,001.9,283.5,090623,000.0,W*63
$GPGGA,015120.598,4355.412,N,07926.561,W,1,12,1.0,0.0,M,0.0,M,,*77
$GPGSA,A,3,01,02,03,04,05,06,07,08,09,10,11,12,1.0,1.0,1.0*30
$GPRMC,015120.598,A,4355.412,N,07926.561,W,001.9,283.5,090623,000.0,W*69
$GPGGA,015121.598,4355.413,N,07926.562,W,1,12,1.0,0.0,M,0.0,M,,*74
$GPGSA,A,3,01,02,03,04,05,06,07,08,09,10,11,12,1.0,1.0,1.0*30
$GPRMC,015121.598,A,4355.413,N,07926.562,W,001.9,256.1,090623,000.0,W*66
$GPGGA,015122.598,4355.412,N,07926.563,W,1,12,1.0,0.0,M,0.0,M,,*77
$GPGSA,A,3,01,02,03,04,05,06,07,08,09,10,11,12,1.0,1.0,1.0*30
$GPRMC,015122.598,A,4355.412,N,07926.563,W,001.9,256.1,090623,000.0,W*65
$GPGGA,015123.598,4355.412,N,07926.563,W,1,12,1.0,0.0,M,0.0,M,,*76
$GPGSA,A,3,01,02,03,04,05,06,07,08,09,10,11,12,1.0,1.0,1.0*30
$GPRMC,015123.598,A,4355.412,N,07926.563,W,001.9,256.1,090623,000.0,W*64
$GPGGA,015124.598,4355.412,N,07926.564,W,1,12,1.0,0.0,M,0.0,M,,*76
$GPGSA,A,3,01,02,03,04,05,06,07,08,09,10,11,12,1.0,1.0,1.0*30
$GPRMC,015124.598,A,4355.412,N,07926.564,W,001.9,256.1,090623,000.0,W*64
$GPGGA,015125.598,4355.412,N,07926.565,W,1,12,1.0,0.0,M,0.0,M,,*76
$GPGSA,A,3,01,02,03,04,05,06,07,08,09,10,11,12,1.0,1.0,1.0*30
$GPRMC,015125.598,A,4355.412,N,07926.565,W,001.9,256.1,090623,000.0,W*64
$GPGGA,015126.598,4355.412,N,07926.565,W,1,12,1.0,0.0,M,0.0,M,,*75
$GPGSA,A,3,01,02,03,04,05,06,07,08,09,10,11,12,1.0,1.0,1.0*30
$GPRMC,015126.598,A,4355.412,N,07926.565,W,001.9,256.1,090623,000.0,W*67
$GPGGA,015127.598,4355.412,N,07926.566,W,1,12,1.0,0.0,M,0.0,M,,*77
$GPGSA,A,3,01,02,03,04,05,06,07,08,09,10,11,12,1.0,1.0,1.0*30
$GPRMC,015127.598,A,4355.412,N,07926.566,W,001.9,256.1,090623,000.0,W*65
$GPGGA,015128.598,4355.411,N,07926.567,W,1,12,1.0,0.0,M,0.0,M,,*7A
$GPGSA,A,3,01,02,03,04,05,06,07,08,09,10,11,12,1.0,1.0,1.0*30
$GPRMC,015128.598,A,4355.411,N,07926.567,W,001.9,256.1,090623,000.0,W*68
$GPGGA,015129.598,4355.411,N,07926.568,W,1,12,1.0,0.0,M,0.0,M,,*74
$GPGSA,A,3,01,02,03,04,05,06,07,08,09,10,11,12,1.0,1.0,1.0*30
$GPRMC,015129.598,A,4355.411,N,07926.568,W,001.9,256.1,090623,000.0,W*66
$GPGGA,015130.598,4355.411,N,07926.568,W,1,12,1.0,0.0,M,0.0,M,,*7C
$GPGSA,A,3,01,02,03,04,05,06,07,08,09,10,11,12,1.0,1.0,1.0*30
$GPRMC,015130.598,A,4355.411,N,07926.568,W,001.9,256.1,090623,000.0,W*6E
$GPGGA,015131.598,4355.411,N,07926.569,W,1,12,1.0,0.0,M,0.0,M,,*7C
$GPGSA,A,3,01,02,03,04,05,06,07,08,09,10,11,12,1.0,1.0,1.0*30
$GPRMC,015131.598,A,4355.411,N,07926.569,W,001.9,256.1,090623,000.0,W*6E
$GPGGA,015132.598,4355.411,N,07926.570,W,1,12,1.0,0.0,M,0.0,M,,*77
$GPGSA,A,3,01,02,03,04,05,06,07,08,09,10,11,12,1.0,1.0,1.0*30
$GPRMC,015132.598,A,4355.411,N,07926.570,W,001.9,256.1,090623,000.0,W*65
$GPGGA,015133.598,4355.411,N,07926.570,W,1,12,1.0,0.0,M,0.0,M,,*76
$GPGSA,A,3,01,02,03,04,05,06,07,08,09,10,11,12,1.0,1.0,1.0*30
$GPRMC,015133.598,A,4355.411,N,07926.570,W,001.9,252.7,090623,000.0,W*66
$GPGGA,015134.598,4355.410,N,07926.571,W,1,12,1.0,0.0,M,0.0,M,,*71
$GPGSA,A,3,01,02,03,04,05,06,07,08,09,10,11,12,1.0,1.0,1.0*30
$GPRMC,015134.598,A,4355.410,N,07926.571,W,001.9,252.7,090623,000.0,W*61
$GPGGA,015135.598,4355.410,N,07926.572,W,1,12,1.0,0.0,M,0.0,M,,*73
$GPGSA,A,3,01,02,03,04,05,06,07,08,09,10,11,12,1.0,1.0,1.0*30
$GPRMC,015135.598,A,4355.410,N,07926.572,W,001.9,252.7,090623,000.0,W*63
$GPGGA,015136.598,4355.410,N,07926.572,W,1,12,1.0,0.0,M,0.0,M,,*70
$GPGSA,A,3,01,02,03,04,05,06,07,08,09,10,11,12,1.0,1.0,1.0*30
$GPRMC,015136.598,A,4355.410,N,07926.572,W,001.9,252.7,090623,000.0,W*60
$GPGGA,015137.598,4355.410,N,07926.573,W,1,12,1.0,0.0,M,0.0,M,,*70
$GPGSA,A,3,01,02,03,04,05,06,07,08,09,10,11,12,1.0,1.0,1.0*30
$GPRMC,015137.598,A,4355.410,N,07926.573,W,001.9,252.7,090623,000.0,W*60
$GPGGA,015138.598,4355.409,N,07926.574,W,1,12,1.0,0.0,M,0.0,M,,*70
$GPGSA,A,3,01,02,03,04,05,06,07,08,09,10,11,12,1.0,1.0,1.0*30
$GPRMC,015138.598,A,4355.409,N,07926.574,W,001.9,252.7,090623,000.0,W*60
$GPGGA,015139.598,4355.409,N,07926.575,W,1,12,1.0,0.0,M,0.0,M,,*70
$GPGSA,A,3,01,02,03,04,05,06,07,08,09,10,11,12,1.0,1.0,1.0*30
$GPRMC,015139.598,A,4355.409,N,07926.575,W,001.9,252.7,090623,000.0,W*60
$GPGGA,015140.598,4355.409,N,07926.575,W,1,12,1.0,0.0,M,0.0,M,,*7E
$GPGSA,A,3,01,02,03,04,05,06,07,08,09,10,11,12,1.0,1.0,1.0*30
$GPRMC,015140.598,A,4355.409,N,07926.575,W,001.9,252.7,090623,000.0,W*6E
$GPGGA,015141.598,4355.409,N,07926.576,W,1,12,1.0,0.0,M,0.0,M,,*7C
$GPGSA,A,3,01,02,03,04,05,06,07,08,09,10,11,12,1.0,1.0,1.0*30
$GPRMC,015141.598,A,4355.409,N,07926.576,W,001.9,252.7,090623,000.0,W*6C
$GPGGA,015142.598,4355.409,N,07926.577,W,1,12,1.0,0.0,M,0.0,M,,*7E
$GPGSA,A,3,01,02,03,04,05,06,07,08,09,10,11,12,1.0,1.0,1.0*30
$GPRMC,015142.598,A,4355.409,N,07926.577,W,001.9,252.7,090623,000.0,W*6E
$GPGGA,015143.598,4355.408,N,07926.577,W,1,12,1.0,0.0,M,0.0,M,,*7E
$GPGSA,A,3,01,02,03,04,05,06,07,08,09,10,11,12,1.0,1.0,1.0*30
$GPRMC,015143.598,A,4355.408,N,07926.577,W,001.9,252.7,090623,000.0,W*6E
$GPGGA,015144.598,4355.408,N,07926.578,W,1,12,1.0,0.0,M,0.0,M,,*76
$GPGSA,A,3,01,02,03,04,05,06,07,08,09,10,11,12,1.0,1.0,1.0*30
$GPRMC,015144.598,A,4355.408,N,07926.578,W,001.9,252.7,090623,000.0,W*66
$GPGGA,015145.598,4355.408,N,07926.579,W,1,12,1.0,0.0,M,0.0,M,,*76
$GPGSA,A,3,01,02,03,04,05,06,07,08,09,10,11,12,1.0,1.0,1.0*30
$GPRMC,015145.598,A,4355.408,N,07926.579,W,001.9,252.7,090623,000.0,W*66
$GPGGA,015146.598,4355.408,N,07926.579,W,1,12,1.0,0.0,M,0.0,M,,*75
$GPGSA,A,3,01,02,03,04,05,06,07,08,09,10,11,12,1.0,1.0,1.0*30
$GPRMC,015146.598,A,4355.408,N,07926.579,W,001.9,252.7,090623,000.0,W*65
$GPGGA,015147.598,4355.408,N,07926.580,W,1,12,1.0,0.0,M,0.0,M,,*72
$GPGSA,A,3,01,02,03,04,05,06,07,08,09,10,11,12,1.0,1.0,1.0*30
$GPRMC,015147.598,A,4355.408,N,07926.580,W,001.9,252.7,090623,000.0,W*62
$GPGGA,015148.598,4355.407,N,07926.581,W,1,12,1.0,0.0,M,0.0,M,,*73
$GPGSA,A,3,01,02,03,04,05,06,07,08,09,10,11,12,1.0,1.0,1.0*30
$GPRMC,015148.598,A,4355.407,N,07926.581,W,001.9,252.7,090623,000.0,W*63
$GPGGA,015149.598,4355.407,N,07926.581,W,1,12,1.0,0.0,M,0.0,M,,*72
$GPGSA,A,3,01,02,03,04,05,06,07,08,09,10,11,12,1.0,1.0,1.0*30
$GPRMC,015149.598,A,4355.407,N,07926.581,W,001.9,252.7,090623,000.0,W*62
$GPGGA,015150.598,4355.407,N,07926.582,W,1,12,1.0,0.0,M,0.0,M,,*79
$GPGSA,A,3,01,02,03,04,05,06,07,08,09,10,11,12,1.0,1.0,1.0*30
$GPRMC,015150.598,A,4355.407,N,07926.582,W,001.9,252.7,090623,000.0,W*69
$GPGGA,015151.598,4355.407,N,07926.583,W,1,12,1.0,0.0,M,0.0,M,,*79
$GPGSA,A,3,01,02,03,04,05,06,07,08,09,10,11,12,1.0,1.0,1.0*30
$GPRMC,015151.598,A,4355.407,N,07926.583,W,001.9,252.7,090623,000.0,W*69
$GPGGA,015152.598,4355.406,N,07926.584,W,1,12,1.0,0.0,M,0.0,M,,*7C
$GPGSA,A,3,01,02,03,04,05,06,07,08,09,10,11,12,1.0,1.0,1.0*30
$GPRMC,015152.598,A,4355.406,N,07926.584,W,001.9,252.7,090623,000.0,W*6C
$GPGGA,015153.598,4355.406,N,07926.584,W,1,12,1.0,0.0,M,0.0,M,,*7D
$GPGSA,A,3,01,02,03,04,05,06,07,08,09,10,11,12,1.0,1.0,1.0*30
$GPRMC,015153.598,A,4355.406,N,07926.584,W,001.9,252.7,090623,000.0,W*6D
$GPGGA,015154.598,4355.406,N,07926.585,W,1,12,1.0,0.0,M,0.0,M,,*7B
$GPGSA,A,3,01,02,03,04,05,06,07,08,09,10,11,12,1.0,1.0,1.0*30
$GPRMC,015154.598,A,4355.406,N,07926.585,W,001.9,252.7,090623,000.0,W*6B
$GPGGA,015155.598,4355.406,N,07926.586,W,1,12,1.0,0.0,M,0.0,M,,*79
$GPGSA,A,3,01,02,03,04,05,06,07,08,09,10,11,12,1.0,1.0,1.0*30
$GPRMC,015155.598,A,4355.406,N,07926.586,W,001.9,252.7,090623,000.0,W*69
$GPGGA,015156.598,4355.406,N,07926.586,W,1,12,1.0,0.0,M,0.0,M,,*7A
$GPGSA,A,3,01,02,03,04,05,06,07,08,09,10,11,12,1.0,1.0,1.0*30
$GPRMC,015156.598,A,4355.406,N,07926.586,W,001.9,252.7,090623,000.0,W*6A
$GPGGA,015157.598,4355.405,N,07926.587,W,1,12,1.0,0.0,M,0.0,M,,*79
$GPGSA,A,3,01,02,03,04,05,06,07,08,09,10,11,12,1.0,1.0,1.0*30
$GPRMC,015157.598,A,4355.405,N,07926.587,W,001.9,252.7,090623,000.0,W*69
$GPGGA,015158.598,4355.405,N,07926.588,W,1,12,1.0,0.0,M,0.0,M,,*79
$GPGSA,A,3,01,02,03,04,05,06,07,08,09,10,11,12,1.0,1.0,1.0*30
$GPRMC,015158.598,A,4355.405,N,07926.588,W,001.9,252.7,090623,000.0,W*69
$GPGGA,015159.598,4355.405,N,07926.588,W,1,12,1.0,0.0,M,0.0,M,,*78
$GPGSA,A,3,01,02,03,04,05,06,07,08,09,10,11,12,1.0,1.0,1.0*30
$GPRMC,015159.598,A,4355.405,N,07926.588,W,001.9,252.7,090623,000.0,W*68
$GPGGA,015200.598,4355.405,N,07926.589,W,1,12,1.0,0.0,M,0.0,M,,*76
$GPGSA,A,3,01,02,03,04,05,06,07,08,09,10,11,12,1.0,1.0,1.0*30
$GPRMC,015200.598,A,4355.405,N,07926.589,W,001.9,252.7,090623,000.0,W*66
$GPGGA,015201.598,4355.405,N,07926.590,W,1,12,1.0,0.0,M,0.0,M,,*7F
$GPGSA,A,3,01,02,03,04,05,06,07,08,09,10,11,12,1.0,1.0,1.0*30
$GPRMC,015201.598,A,4355.405,N,07926.590,W,001.9,252.7,090623,000.0,W*6F
$GPGGA,015202.598,4355.404,N,07926.590,W,1,12,1.0,0.0,M,0.0,M,,*7D
$GPGSA,A,3,01,02,03,04,05,06,07,08,09,10,11,12,1.0,1.0,1.0*30
$GPRMC,015202.598,A,4355.404,N,07926.590,W,001.9,252.7,090623,000.0,W*6D
$GPGGA,015203.598,4355.404,N,07926.591,W,1,12,1.0,0.0,M,0.0,M,,*7D
$GPGSA,A,3,01,02,03,04,05,06,07,08,09,10,11,12,1.0,1.0,1.0*30
$GPRMC,015203.598,A,4355.404,N,07926.591,W,001.9,252.7,090623,000.0,W*6D
$GPGGA,015204.598,4355.404,N,07926.592,W,1,12,1.0,0.0,M,0.0,M,,*79
$GPGSA,A,3,01,02,03,04,05,06,07,08,09,10,11,12,1.0,1.0,1.0*30
$GPRMC,015204.598,A,4355.404,N,07926.592,W,001.9,252.7,090623,000.0,W*69
$GPGGA,015205.598,4355.404,N,07926.592,W,1,12,1.0,0.0,M,0.0,M,,*78
$GPGSA,A,3,01,02,03,04,05,06,07,08,09,10,11,12,1.0,1.0,1.0*30
$GPRMC,015205.598,A,4355.404,N,07926.592,W,001.9,252.7,090623,000.0,W*68
$GPGGA,015206.598,4355.403,N,07926.593,W,1,12,1.0,0.0,M,0.0,M,,*7D
$GPGSA,A,3,01,02,03,04,05,06,07,08,09,10,11,12,1.0,1.0,1.0*30
$GPRMC,015206.598,A,4355.403,N,07926.593,W,001.9,252.7,090623,000.0,W*6D
$GPGGA,015207.598,4355.403,N,07926.594,W,1,12,1.0,0.0,M,0.0,M,,*7B
$GPGSA,A,3,01,02,03,04,05,06,07,08,09,10,11,12,1.0,1.0,1.0*30
$GPRMC,015207.598,A,4355.403,N,07926.594,W,001.9,252.7,090623,000.0,W*6B
$GPGGA,015208.598,4355.403,N,07926.595,W,1,12,1.0,0.0,M,0.0,M,,*75
$GPGSA,A,3,01,02,03,04,05,06,07,08,09,10,11,12,1.0,1.0,1.0*30
$GPRMC,015208.598,A,4355.403,N,07926.595,W,001.9,252.7,090623,000.0,W*65
$GPGGA,015209.598,4355.403,N,07926.595,W,1,12,1.0,0.0,M,0.0,M,,*74
$GPGSA,A,3,01,02,03,04,05,06,07,08,09,10,11,12,1.0,1.0,1.0*30
$GPRMC,015209.598,A,4355.403,N,07926.595,W,001.9,252.7,090623,000.0,W*64
$GPGGA,015210.598,4355.403,N,07926.596,W,1,12,1.0,0.0,M,0.0,M,,*7F
$GPGSA,A,3,01,02,03,04,05,06,07,08,09,10,11,12,1.0,1.0,1.0*30
$GPRMC,015210.598,A,4355.403,N,07926.596,W,001.9,252.7,090623,000.0,W*6F
$GPGGA,015211.598,4355.402,N,07926.597,W,1,12,1.0,0.0,M,0.0,M,,*7E
$GPGSA,A,3,01,02,03,04,05,06,07,08,09,10,11,12,1.0,1.0,1.0*30
$GPRMC,015211.598,A,4355.402,N,07926.597,W,001.9,252.7,090623,000.0,W*6E
$GPGGA,015212.598,4355.402,N,07926.597,W,1,12,1.0,0.0,M,0.0,M,,*7D
$GPGSA,A,3,01,02,03,04,05,06,07,08,09,10,11,12,1.0,1.0,1.0*30
$GPRMC,015212.598,A,4355.402,N,07926.597,W,001.9,252.7,090623,000.0,W*6D
$GPGGA,015213.598,4355.402,N,07926.598,W,1,12,1.0,0.0,M,0.0,M,,*73
$GPGSA,A,3,01,02,03,04,05,06,07,08,09,10,11,12,1.0,1.0,1.0*30
$GPRMC,015213.598,A,4355.402,N,07926.598,W,001.9,252.7,090623,000.0,W*63
$GPGGA,015214.598,4355.402,N,07926.599,W,1,12,1.0,0.0,M,0.0,M,,*75
$GPGSA,A,3,01,02,03,04,05,06,07,08,09,10,11,12,1.0,1.0,1.0*30
$GPRMC,015214.598,A,4355.402,N,07926.599,W,001.9,252.7,090623,000.0,W*65
$GPGGA,015215.598,4355.402,N,07926.599,W,1,12,1.0,0.0,M,0.0,M,,*74
$GPGSA,A,3,01,02,03,04,05,06,07,08,09,10,11,12,1.0,1.0,1.0*30
$GPRMC,015215.598,A,4355.402,N,07926.599,W,001.9,252.7,090623,000.0,W*64
$GPGGA,015216.598,4355.401,N,07926.600,W,1,12,1.0,0.0,M,0.0,M,,*77
$GPGSA,A,3,01,02,03,04,05,06,07,08,09,10,11,12,1.0,1.0,1.0*30
$GPRMC,015216.598,A,4355.401,N,07926.600,W,001.9,252.7,090623,000.0,W*67
$GPGGA,015217.598,4355.401,N,07926.601,W,1,12,1.0,0.0,M,0.0,M,,*77
$GPGSA,A,3,01,02,03,04,05,06,07,08,09,10,11,12,1.0,1.0,1.0*30
$GPRMC,015217.598,A,4355.401,N,07926.601,W,001.9,252.7,090623,000.0,W*67
$GPGGA,015218.598,4355.401,N,07926.601,W,1,12,1.0,0.0,M,0.0,M,,*78
$GPGSA,A,3,01,02,03,04,05,06,07,08,09,10,11,12,1.0,1.0,1.0*30
$GPRMC,015218.598,A,4355.401,N,07926.601,W,001.9,252.7,090623,000.0,W*68
$GPGGA,015219.598,4355.401,N,07926.602,W,1,12,1.0,0.0,M,0.0,M,,*7A
$GPGSA,A,3,01,02,03,04,05,06,07,08,09,10,11,12,1.0,1.0,1.0*30
$GPRMC,015219.598,A,4355.401,N,07926.602,W,001.9,252.7,090623,000.0,W*6A
$GPGGA,015220.598,4355.400,N,07926.603,W,1,12,1.0,0.0,M,0.0,M,,*70
$GPGSA,A,3,01,02,03,04,05,06,07,08,09,10,11,12,1.0,1.0,1.0*30
$GPRMC,015220.598,A,4355.400,N,07926.603,W,001.9,252.7,090623,000.0,W*60
$GPGGA,015221.598,4355.400,N,07926.603,W,1,12,1.0,0.0,M,0.0,M,,*71
$GPGSA,A,3,01,02,03,04,05,06,07,08,09,10,11,12,1.0,1.0,1.0*30
$GPRMC,015221.598,A,4355.400,N,07926.603,W,001.9,252.7,090623,000.0,W*61
$GPGGA,015222.598,4355.400,N,07926.604,W,1,12,1.0,0.0,M,0.0,M,,*75
$GPGSA,A,3,01,02,03,04,05,06,07,08,09,10,11,12,1.0,1.0,1.0*30
$GPRMC,015222.598,A,4355.400,N,07926.604,W,001.9,252.7,090623,000.0,W*65
$GPGGA,015223.598,4355.400,N,07926.605,W,1,12,1.0,0.0,M,0.0,M,,*75
$GPGSA,A,3,01,02,03,04,05,06,07,08,09,10,11,12,1.0,1.0,1.0*30
$GPRMC,015223.598,A,4355.400,N,07926.605,W,001.9,252.7,090623,000.0,W*65
$GPGGA,015224.598,4355.400,N,07926.606,W,1,12,1.0,0.0,M,0.0,M,,*71
$GPGSA,A,3,01,02,03,04,05,06,07,08,09,10,11,12,1.0,1.0,1.0*30
$GPRMC,015224.598,A,4355.400,N,07926.606,W,001.9,252.7,090623,000.0,W*61
$GPGGA,015225.598,4355.399,N,07926.606,W,1,12,1.0,0.0,M,0.0,M,,*77
$GPGSA,A,3,01,02,03,04,05,06,07,08,09,10,11,12,1.0,1.0,1.0*30
$GPRMC,015225.598,A,4355.399,N,07926.606,W,001.9,252.7,090623,000.0,W*67
$GPGGA,015226.598,4355.399,N,07926.607,W,1,12,1.0,0.0,M,0.0,M,,*75
$GPGSA,A,3,01,02,03,04,05,06,07,08,09,10,11,12,1.0,1.0,1.0*30
$GPRMC,015226.598,A,4355.399,N,07926.607,W,001.9,252.7,090623,000.0,W*65
$GPGGA,015227.598,4355.399,N,07926.608,W,1,12,1.0,0.0,M,0.0,M,,*7B
$GPGSA,A,3,01,02,03,04,05,06,07,08,09,10,11,12,1.0,1.0,1.0*30
$GPRMC,015227.598,A,4355.399,N,07926.608,W,001.9,252.7,090623,000.0,W*6B
$GPGGA,015228.598,4355.399,N,07926.608,W,1,12,1.0,0.0,M,0.0,M,,*74
$GPGSA,A,3,01,02,03,04,05,06,07,08,09,10,11,12,1.0,1.0,1.0*30
$GPRMC,015228.598,A,4355.399,N,07926.608,W,001.9,252.7,090623,000.0,W*64
$GPGGA,015229.598,4355.399,N,07926.609,W,1,12,1.0,0.0,M,0.0,M,,*74
$GPGSA,A,3,01,02,03,04,05,06,07,08,09,10,11,12,1.0,1.0,1.0*30
$GPRMC,015229.598,A,4355.399,N,07926.609,W,001.9,252.7,090623,000.0,W*64
$GPGGA,015230.598,4355.398,N,07926.610,W,1,12,1.0,0.0,M,0.0,M,,*75
$GPGSA,A,3,01,02,03,04,05,06,07,08,09,10,11,12,1.0,1.0,1.0*30
$GPRMC,015230.598,A,4355.398,N,07926.610,W,001.9,252.7,090623,000.0,W*65
$GPGGA,015231.598,4355.398,N,07926.610,W,1,12,1.0,0.0,M,0.0,M,,*74
$GPGSA,A,3,01,02,03,04,05,06,07,08,09,10,11,12,1.0,1.0,1.0*30
$GPRMC,015231.598,A,4355.398,N,07926.610,W,001.9,252.7,090623,000.0,W*64
$GPGGA,015232.598,4355.398,N,07926.611,W,1,12,1.0,0.0,M,0.0,M,,*76
$GPGSA,A,3,01,02,03,04,05,06,07,08,09,10,11,12,1.0,1.0,1.0*30
$GPRMC,015232.598,A,4355.398,N,07926.611,W,001.9,252.7,090623,000.0,W*66
$GPGGA,015233.598,4355.398,N,07926.612,W,1,12,1.0,0.0,M,0.0,M,,*74
$GPGSA,A,3,01,02,03,04,05,06,07,08,09,10,11,12,1.0,1.0,1.0*30
$GPRMC,015233.598,A,4355.398,N,07926.612,W,001.9,252.7,090623,000.0,W*64
$GPGGA,015234.598,4355.398,N,07926.612,W,1,12,1.0,0.0,M,0.0,M,,*73
$GPGSA,A,3,01,02,03,04,05,06,07,08,09,10,11,12,1.0,1.0,1.0*30
$GPRMC,015234.598,A,4355.398,N,07926.612,W,001.9,252.7,090623,000.0,W*63
$GPGGA,015235.598,4355.397,N,07926.613,W,1,12,1.0,0.0,M,0.0,M,,*7C
$GPGSA,A,3,01,02,03,04,05,06,07,08,09,10,11,12,1.0,1.0,1.0*30
$GPRMC,015235.598,A,4355.397,N,07926.613,W,001.9,252.7,090623,000.0,W*6C
$GPGGA,015236.598,4355.397,N,07926.614,W,1,12,1.0,0.0,M,0.0,M,,*78
$GPGSA,A,3,01,02,03,04,05,06,07,08,09,10,11,12,1.0,1.0,1.0*30
$GPRMC,015236.598,A,4355.397,N,07926.614,W,001.9,252.7,090623,000.0,W*68
$GPGGA,015237.598,4355.397,N,07926.614,W,1,12,1.0,0.0,M,0.0,M,,*79
$GPGSA,A,3,01,02,03,04,05,06,07,08,09,10,11,12,1.0,1.0,1.0*30
$GPRMC,015237.598,A,4355.397,N,07926.614,W,001.9,252.7,090623,000.0,W*69
$GPGGA,015238.598,4355.397,N,07926.615,W,1,12,1.0,0.0,M,0.0,M,,*77
$GPGSA,A,3,01,02,03,04,05,06,07,08,09,10,11,12,1.0,1.0,1.0*30
$GPRMC,015238.598,A,4355.397,N,07926.615,W,001.9,252.7,090623,000.0,W*67
$GPGGA,015239.598,4355.396,N,07926.616,W,1,12,1.0,0.0,M,0.0,M,,*74
$GPGSA,A,3,01,02,03,04,05,06,07,08,09,10,11,12,1.0,1.0,1.0*30
$GPRMC,015239.598,A,4355.396,N,07926.616,W,001.9,252.7,090623,000.0,W*64
$GPGGA,015240.598,4355.396,N,07926.617,W,1,12,1.0,0.0,M,0.0,M,,*7B
$GPGSA,A,3,01,02,03,04,05,06,07,08,09,10,11,12,1.0,1.0,1.0*30
$GPRMC,015240.598,A,4355.396,N,07926.617,W,001.9,252.7,090623,000.0,W*6B
$GPGGA,015241.598,4355.396,N,07926.617,W,1,12,1.0,0.0,M,0.0,M,,*7A
$GPGSA,A,3,01,02,03,04,05,06,07,08,09,10,11,12,1.0,1.0,1.0*30
$GPRMC,015241.598,A,4355.396,N,07926.617,W,001.9,252.7,090623,000.0,W*6A
$GPGGA,015242.598,4355.396,N,07926.618,W,1,12,1.0,0.0,M,0.0,M,,*76
$GPGSA,A,3,01,02,03,04,05,06,07,08,09,10,11,12,1.0,1.0,1.0*30
$GPRMC,015242.598,A,4355.396,N,07926.618,W,001.9,252.7,090623,000.0,W*66
$GPGGA,015243.598,4355.396,N,07926.619,W,1,12,1.0,0.0,M,0.0,M,,*76
$GPGSA,A,3,01,02,03,04,05,06,07,08,09,10,11,12,1.0,1.0,1.0*30
$GPRMC,015243.598,A,4355.396,N,07926.619,W,001.9,252.7,090623,000.0,W*66
$GPGGA,015244.598,4355.395,N,07926.619,W,1,12,1.0,0.0,M,0.0,M,,*72
$GPGSA,A,3,01,02,03,04,05,06,07,08,09,10,11,12,1.0,1.0,1.0*30
$GPRMC,015244.598,A,4355.395,N,07926.619,W,001.9,252.7,090623,000.0,W*62
$GPGGA,015245.598,4355.395,N,07926.620,W,1,12,1.0,0.0,M,0.0,M,,*79
$GPGSA,A,3,01,02,03,04,05,06,07,08,09,10,11,12,1.0,1.0,1.0*30
$GPRMC,015245.598,A,4355.395,N,07926.620,W,001.9,252.7,090623,000.0,W*69
$GPGGA,015246.598,4355.395,N,07926.621,W,1,12,1.0,0.0,M,0.0,M,,*7B
$GPGSA,A,3,01,02,03,04,05,06,07,08,09,10,11,12,1.0,1.0,1.0*30
$GPRMC,015246.598,A,4355.395,N,07926.621,W,001.9,252.7,090623,000.0,W*6B
$GPGGA,015247.598,4355.395,N,07926.621,W,1,12,1.0,0.0,M,0.0,M,,*7A
$GPGSA,A,3,01,02,03,04,05,06,07,08,09,10,11,12,1.0,1.0,1.0*30
$GPRMC,015247.598,A,4355.395,N,07926.621,W,001.9,252.7,090623,000.0,W*6A
$GPGGA,015248.598,4355.395,N,07926.622,W,1,12,1.0,0.0,M,0.0,M,,*76
$GPGSA,A,3,01,02,03,04,05,06,07,08,09,10,11,12,1.0,1.0,1.0*30
$GPRMC,015248.598,A,4355.395,N,07926.622,W,001.9,252.7,090623,000.0,W*66
$GPGGA,015249.598,4355.394,N,07926.623,W,1,12,1.0,0.0,M,0.0,M,,*77
$GPGSA,A,3,01,02,03,04,05,06,07,08,09,10,11,12,1.0,1.0,1.0*30
$GPRMC,015249.598,A,4355.394,N,07926.623,W,001.9,252.7,090623,000.0,W*67
$GPGGA,015250.598,4355.394,N,07926.623,W,1,12,1.0,0.0,M,0.0,M,,*7F
$GPGSA,A,3,01,02,03,04,05,06,07,08,09,10,11,12,1.0,1.0,1.0*30
$GPRMC,015250.598,A,4355.394,N,07926.623,W,001.9,252.7,090623,000.0,W*6F
$GPGGA,015251.598,4355.394,N,07926.624,W,1,12,1.0,0.0,M,0.0,M,,*79
$GPGSA,A,3,01,02,03,04,05,06,07,08,09,10,11,12,1.0,1.0,1.0*30
$GPRMC,015251.598,A,4355.394,N,07926.624,W,001.9,252.7,090623,000.0,W*69
$GPGGA,015252.598,4355.394,N,07926.625,W,1,12,1.0,0.0,M,0.0,M,,*7B
$GPGSA,A,3,01,02,03,04,05,06,07,08,09,10,11,12,1.0,1.0,1.0*30
$GPRMC,015252.598,A,4355.394,N,07926.625,W,001.9,252.7,090623,000.0,W*6B
$GPGGA,015253.598,4355.393,N,07926.625,W,1,12,1.0,0.0,M,0.0,M,,*7D
$GPGSA,A,3,01,02,03,04,05,06,07,08,09,10,11,12,1.0,1.0,1.0*30
$GPRMC,015253.598,A,4355.393,N,07926.625,W,001.9,252.7,090623,000.0,W*6D
$GPGGA,015254.598,4355.393,N,07926.626,W,1,12,1.0,0.0,M,0.0,M,,*79
$GPGSA,A,3,01,02,03,04,05,06,07,08,09,10,11,12,1.0,1.0,1.0*30
$GPRMC,015254.598,A,4355.393,N,07926.626,W,001.9,252.7,090623,000.0,W*69
$GPGGA,015255.598,4355.393,N,07926.627,W,1,12,1.0,0.0,M,0.0,M,,*79
$GPGSA,A,3,01,02,03,04,05,06,07,08,09,10,11,12,1.0,1.0,1.0*30
$GPRMC,015255.598,A,4355.393,N,07926.627,W,001.9,252.7,090623,000.0,W*69
$GPGGA,015256.598,4355.393,N,07926.628,W,1,12,1.0,0.0,M,0.0,M,,*75
$GPGSA,A,3,01,02,03,04,05,06,07,08,09,10,11,12,1.0,1.0,1.0*30
$GPRMC,015256.598,A,4355.393,N,07926.628,W,001.9,252.7,090623,000.0,W*65
$GPGGA,015257.598,4355.393,N,07926.628,W,1,12,1.0,0.0,M,0.0,M,,*74
$GPGSA,A,3,01,02,03,04,05,06,07,08,09,10,11,12,1.0,1.0,1.0*30
$GPRMC,015257.598,A,4355.393,N,07926.628,W,001.9,252.7,090623,000.0,W*64
$GPGGA,015258.598,4355.392,N,07926.629,W,1,12,1.0,0.0,M,0.0,M,,*7B
$GPGSA,A,3,01,02,03,04,05,06,07,08,09,10,11,12,1.0,1.0,1.0*30
$GPRMC,015258.598,A,4355.392,N,07926.629,W,001.9,252.7,090623,000.0,W*6B
$GPGGA,015259.598,4355.392,N,07926.630,W,1,12,1.0,0.0,M,0.0,M,,*72
$GPGSA,A,3,01,02,03,04,05,06,07,08,09,10,11,12,1.0,1.0,1.0*30
$GPRMC,015259.598,A,4355.392,N,07926.630,W,001.9,252.7,090623,000.0,W*62
$GPGGA,015300.598,4355.392,N,07926.630,W,1,12,1.0,0.0,M,0.0,M,,*7F
$GPGSA,A,3,01,02,03,04,05,06,07,08,09,10,11,12,1.0,1.0,1.0*30
$GPRMC,015300.598,A,4355.392,N,07926.630,W,001.9,252.7,090623,000.0,W*6F
$GPGGA,015301.598,4355.392,N,07926.631,W,1,12,1.0,0.0,M,0.0,M,,*7F
$GPGSA,A,3,01,02,03,04,05,06,07,08,09,10,11,12,1.0,1.0,1.0*30
$GPRMC,015301.598,A,4355.392,N,07926.631,W,001.9,252.7,090623,000.0,W*6F
$GPGGA,015302.598,4355.392,N,07926.632,W,1,12,1.0,0.0,M,0.0,M,,*7F
$GPGSA,A,3,01,02,03,04,05,06,07,08,09,10,11,12,1.0,1.0,1.0*30
$GPRMC,015302.598,A,4355.392,N,07926.632,W,001.9,252.7,090623,000.0,W*6F
$GPGGA,015303.598,4355.391,N,07926.632,W,1,12,1.0,0.0,M,0.0,M,,*7D
$GPGSA,A,3,01,02,03,04,05,06,07,08,09,10,11,12,1.0,1.0,1.0*30
$GPRMC,015303.598,A,4355.391,N,07926.632,W,001.9,252.7,090623,000.0,W*6D
$GPGGA,015304.598,4355.391,N,07926.633,W,1,12,1.0,0.0,M,0.0,M,,*7B
$GPGSA,A,3,01,02,03,04,05,06,07,08,09,10,11,12,1.0,1.0,1.0*30
$GPRMC,015304.598,A,4355.391,N,07926.633,W,001.9,252.7,090623,000.0,W*6B
$GPGGA,015305.598,4355.391,N,07926.634,W,1,12,1.0,0.0,M,0.0,M,,*7D
$GPGSA,A,3,01,02,03,04,05,06,07,08,09,10,11,12,1.0,1.0,1.0*30
$GPRMC,015305.598,A,4355.391,N,07926.634,W,001.9,252.7,090623,000.0,W*6D
$GPGGA,015306.598,4355.391,N,07926.634,W,1,12,1.0,0.0,M,0.0,M,,*7E
$GPGSA,A,3,01,02,03,04,05,06,07,08,09,10,11,12,1.0,1.0,1.0*30
$GPRMC,015306.598,A,4355.391,N,07926.634,W,001.9,252.7,090623,000.0,W*6E
$GPGGA,015307.598,4355.390,N,07926.635,W,1,12,1.0,0.0,M,0.0,M,,*7F
$GPGSA,A,3,01,02,03,04,05,06,07,08,09,10,11,12,1.0,1.0,1.0*30
$GPRMC,015307.598,A,4355.390,N,07926.635,W,001.9,252.7,090623,000.0,W*6F
$GPGGA,015308.598,4355.390,N,07926.636,W,1,12,1.0,0.0,M,0.0,M,,*73
$GPGSA,A,3,01,02,03,04,05,06,07,08,09,10,11,12,1.0,1.0,1.0*30
$GPRMC,015308.598,A,4355.390,N,07926.636,W,001.9,259.2,090623,000.0,W*6D
$GPGGA,015309.598,4355.390,N,07926.637,W,1,12,1.0,0.0,M,0.0,M,,*73
$GPGSA,A,3,01,02,03,04,05,06,07,08,09,10,11,12,1.0,1.0,1.0*30
$GPRMC,015309.598,A,4355.390,N,07926.637,W,001.9,259.2,090623,000.0,W*6D
$GPGGA,015310.598,4355.390,N,07926.637,W,1,12,1.0,0.0,M,0.0,M,,*7B
$GPGSA,A,3,01,02,03,04,05,06,07,08,09,10,11,12,1.0,1.0,1.0*30
$GPRMC,015310.598,A,4355.390,N,07926.637,W,001.9,259.2,090623,000.0,W*65
$GPGGA,015311.598,4355.390,N,07926.638,W,1,12,1.0,0.0,M,0.0,M,,*75
$GPGSA,A,3,01,02,03,04,05,06,07,08,09,10,11,12,1.0,1.0,1.0*30
$GPRMC,015311.598,A,4355.390,N,07926.638,W,001.9,259.2,090623,000.0,W*6B
$GPGGA,015312.598,4355.390,N,07926.639,W,1,12,1.0,0.0,M,0.0,M,,*77
$GPGSA,A,3,01,02,03,04,05,06,07,08,09,10,11,12,1.0,1.0,1.0*30
$GPRMC,015312.598,A,4355.390,N,07926.639,W,001.9,259.2,090623,000.0,W*69
$GPGGA,015313.598,4355.390,N,07926.639,W,1,12,1.0,0.0,M,0.0,M,,*76
$GPGSA,A,3,01,02,03,04,05,06,07,08,09,10,11,12,1.0,1.0,1.0*30
$GPRMC,015313.598,A,4355.390,N,07926.639,W,001.9,259.2,090623,000.0,W*68
$GPGGA,015314.598,4355.389,N,07926.640,W,1,12,1.0,0.0,M,0.0,M,,*77
$GPGSA,A,3,01,02,03,04,05,06,07,08,09,10,11,12,1.0,1.0,1.0*30
$GPRMC,015314.598,A,4355.389,N,07926.640,W,001.9,259.2,090623,000.0,W*69
$GPGGA,015315.598,4355.389,N,07926.641,W,1,12,1.0,0.0,M,0.0,M,,*77
$GPGSA,A,3,01,02,03,04,05,06,07,08,09,10,11,12,1.0,1.0,1.0*30
$GPRMC,015315.598,A,4355.389,N,07926.641,W,001.9,259.2,090623,000.0,W*69
$GPGGA,015316.598,4355.389,N,07926.642,W,1,12,1.0,0.0,M,0.0,M,,*77
$GPGSA,A,3,01,02,03,04,05,06,07,08,09,10,11,12,1.0,1.0,1.0*30
$GPRMC,015316.598,A,4355.389,N,07926.642,W,001.9,259.2,090623,000.0,W*69
$GPGGA,015317.598,4355.389,N,07926.642,W,1,12,1.0,0.0,M,0.0,M,,*76
$GPGSA,A,3,01,02,03,04,05,06,07,08,09,10,11,12,1.0,1.0,1.0*30
$GPRMC,015317.598,A,4355.389,N,07926.642,W,001.9,259.2,090623,000.0,W*68
$GPGGA,015318.598,4355.389,N,07926.643,W,1,12,1.0,0.0,M,0.0,M,,*78
$GPGSA,A,3,01,02,03,04,05,06,07,08,09,10,11,12,1.0,1.0,1.0*30
$GPRMC,015318.598,A,4355.389,N,07926.643,W,001.9,259.2,090623,000.0,W*66
$GPGGA,015319.598,4355.389,N,07926.644,W,1,12,1.0,0.0,M,0.0,M,,*7E
$GPGSA,A,3,01,02,03,04,05,06,07,08,09,10,11,12,1.0,1.0,1.0*30
$GPRMC,015319.598,A,4355.389,N,07926.644,W,001.9,259.2,090623,000.0,W*60
$GPGGA,015320.598,4355.389,N,07926.644,W,1,12,1.0,0.0,M,0.0,M,,*74
$GPGSA,A,3,01,02,03,04,05,06,07,08,09,10,11,12,1.0,1.0,1.0*30
$GPRMC,015320.598,A,4355.389,N,07926.644,W,001.9,259.2,090623,000.0,W*6A
$GPGGA,015321.598,4355.388,N,07926.645,W,1,12,1.0,0.0,M,0.0,M,,*75
$GPGSA,A,3,01,02,03,04,05,06,07,08,09,10,11,12,1.0,1.0,1.0*30
$GPRMC,015321.598,A,4355.388,N,07926.645,W,001.9,259.2,090623,000.0,W*6B
$GPGGA,015322.598,4355.388,N,07926.646,W,1,12,1.0,0.0,M,0.0,M,,*75
$GPGSA,A,3,01,02,03,04,05,06,07,08,09,10,11,12,1.0,1.0,1.0*30
$GPRMC,015322.598,A,4355.388,N,07926.646,W,001.9,259.2,090623,000.0,W*6B
$GPGGA,015323.598,4355.388,N,07926.647,W,1,12,1.0,0.0,M,0.0,M,,*75
$GPGSA,A,3,01,02,03,04,05,06,07,08,09,10,11,12,1.0,1.0,1.0*30
$GPRMC,015323.598,A,4355.388,N,07926.647,W,001.9,259.2,090623,000.0,W*6B
$GPGGA,015324.598,4355.388,N,07926.647,W,1,12,1.0,0.0,M,0.0,M,,*72
$GPGSA,A,3,01,02,03,04,05,06,07,08,09,10,11,12,1.0,1.0,1.0*30
$GPRMC,015324.598,A,4355.388,N,07926.647,W,001.9,259.2,090623,000.0,W*6C
$GPGGA,015325.598,4355.388,N,07926.648,W,1,12,1.0,0.0,M,0.0,M,,*7C
$GPGSA,A,3,01,02,03,04,05,06,07,08,09,10,11,12,1.0,1.0,1.0*30
$GPRMC,015325.598,A,4355.388,N,07926.648,W,001.9,259.2,090623,000.0,W*62
$GPGGA,015326.598,4355.388,N,07926.649,W,1,12,1.0,0.0,M,0.0,M,,*7E
$GPGSA,A,3,01,02,03,04,05,06,07,08,09,10,11,12,1.0,1.0,1.0*30
$GPRMC,015326.598,A,4355.388,N,07926.649,W,001.9,259.2,090623,000.0,W*60
$GPGGA,015327.598,4355.388,N,07926.650,W,1,12,1.0,0.0,M,0.0,M,,*77
$GPGSA,A,3,01,02,03,04,05,06,07,08,09,10,11,12,1.0,1.0,1.0*30
$GPRMC,015327.598,A,4355.388,N,07926.650,W,001.9,259.2,090623,000.0,W*69
$GPGGA,015328.598,4355.387,N,07926.650,W,1,12,1.0,0.0,M,0.0,M,,*77
$GPGSA,A,3,01,02,03,04,05,06,07,08,09,10,11,12,1.0,1.0,1.0*30
$GPRMC,015328.598,A,4355.387,N,07926.650,W,001.9,259.2,090623,000.0,W*69
$GPGGA,015329.598,4355.387,N,07926.651,W,1,12,1.0,0.0,M,0.0,M,,*77
$GPGSA,A,3,01,02,03,04,05,06,07,08,09,10,11,12,1.0,1.0,1.0*30
$GPRMC,015329.598,A,4355.387,N,07926.651,W,001.9,259.2,090623,000.0,W*69
$GPGGA,015330.598,4355.387,N,07926.652,W,1,12,1.0,0.0,M,0.0,M,,*7C
$GPGSA,A,3,01,02,03,04,05,06,07,08,09,10,11,12,1.0,1.0,1.0*30
$GPRMC,015330.598,A,4355.387,N,07926.652,W,001.9,259.2,090623,000.0,W*62
$GPGGA,015331.598,4355.387,N,07926.652,W,1,12,1.0,0.0,M,0.0,M,,*7D
$GPGSA,A,3,01,02,03,04,05,06,07,08,09,10,11,12,1.0,1.0,1.0*30
$GPRMC,015331.598,A,4355.387,N,07926.652,W,001.9,259.2,090623,000.0,W*63
$GPGGA,015332.598,4355.387,N,07926.653,W,1,12,1.0,0.0,M,0.0,M,,*7F
$GPGSA,A,3,01,02,03,04,05,06,07,08,09,10,11,12,1.0,1.0,1.0*30
$GPRMC,015332.598,A,4355.387,N,07926.653,W,001.9,259.2,090623,000.0,W*61
$GPGGA,015333.598,4355.387,N,07926.654,W,1,12,1.0,0.0,M,0.0,M,,*79
$GPGSA,A,3,01,02,03,04,05,06,07,08,09,10,11,12,1.0,1.0,1.0*30
$GPRMC,015333.598,A,4355.387,N,07926.654,W,001.9,259.2,090623,000.0,W*67
$GPGGA,015334.598,4355.387,N,07926.655,W,1,12,1.0,0.0,M,0.0,M,,*7F
$GPGSA,A,3,01,02,03,04,05,06,07,08,09,10,11,12,1.0,1.0,1.0*30
$GPRMC,015334.598,A,4355.387,N,07926.655,W,001.9,259.2,090623,000.0,W*61
$GPGGA,015335.598,4355.387,N,07926.655,W,1,12,1.0,0.0,M,0.0,M,,*7E
$GPGSA,A,3,01,02,03,04,05,06,07,08,09,10,11,12,1.0,1.0,1.0*30
$GPRMC,015335.598,A,4355.387,N,07926.655,W,001.9,259.2,090623,000.0,W*60
$GPGGA,015336.598,4355.386,N,07926.656,W,1,12,1.0,0.0,M,0.0,M,,*7F
$GPGSA,A,3,01,02,03,04,05,06,07,08,09,10,11,12,1.0,1.0,1.0*30
$GPRMC,015336.598,A,4355.386,N,07926.656,W,001.9,259.2,090623,000.0,W*61
$GPGGA,015337.598,4355.386,N,07926.657,W,1,12,1.0,0.0,M,0.0,M,,*7F
$GPGSA,A,3,01,02,03,04,05,06,07,08,09,10,11,12,1.0,1.0,1.0*30
$GPRMC,015337.598,A,4355.386,N,07926.657,W,001.9,259.2,090623,000.0,W*61
$GPGGA,015338.598,4355.386,N,07926.658,W,1,12,1.0,0.0,M,0.0,M,,*7F
$GPGSA,A,3,01,02,03,04,05,06,07,08,09,10,11,12,1.0,1.0,1.0*30
$GPRMC,015338.598,A,4355.386,N,07926.658,W,001.9,259.2,090623,000.0,W*61
$GPGGA,015339.598,4355.386,N,07926.658,W,1,12,1.0,0.0,M,0.0,M,,*7E
$GPGSA,A,3,01,02,03,04,05,06,07,08,09,10,11,12,1.0,1.0,1.0*30
$GPRMC,015339.598,A,4355.386,N,07926.658,W,001.9,259.2,090623,000.0,W*60
$GPGGA,015340.598,4355.386,N,07926.659,W,1,12,1.0,0.0,M,0.0,M,,*71
$GPGSA,A,3,01,02,03,04,05,06,07,08,09,10,11,12,1.0,1.0,1.0*30
$GPRMC,015340.598,A,4355.386,N,07926.659,W,001.9,259.2,090623,000.0,W*6F
$GPGGA,015341.598,4355.386,N,07926.660,W,1,12,1.0,0.0,M,0.0,M,,*7A
$GPGSA,A,3,01,02,03,04,05,06,07,08,09,10,11,12,1.0,1.0,1.0*30
$GPRMC,015341.598,A,4355.386,N,07926.660,W,001.9,259.2,090623,000.0,W*64
$GPGGA,015342.598,4355.386,N,07926.660,W,1,12,1.0,0.0,M,0.0,M,,*79
$GPGSA,A,3,01,02,03,04,05,06,07,08,09,10,11,12,1.0,1.0,1.0*30
$GPRMC,015342.598,A,4355.386,N,07926.660,W,001.9,259.2,090623,000.0,W*67
$GPGGA,015343.598,4355.385,N,07926.661,W,1,12,1.0,0.0,M,0.0,M,,*7A
$GPGSA,A,3,01,02,03,04,05,06,07,08,09,10,11,12,1.0,1.0,1.0*30
$GPRMC,015343.598,A,4355.385,N,07926.661,W,001.9,259.2,090623,000.0,W*64
$GPGGA,015344.598,4355.385,N,07926.662,W,1,12,1.0,0.0,M,0.0,M,,*7E
$GPGSA,A,3,01,02,03,04,05,06,07,08,09,10,11,12,1.0,1.0,1.0*30
$GPRMC,015344.598,A,4355.385,N,07926.662,W,001.9,259.2,090623,000.0,W*60
$GPGGA,015345.598,4355.385,N,07926.663,W,1,12,1.0,0.0,M,0.0,M,,*7E
$GPGSA,A,3,01,02,03,04,05,06,07,08,09,10,11,12,1.0,1.0,1.0*30
$GPRMC,015345.598,A,4355.385,N,07926.663,W,001.9,259.2,090623,000.0,W*60
$GPGGA,015346.598,4355.385,N,07926.663,W,1,12,1.0,0.0,M,0.0,M,,*7D
$GPGSA,A,3,01,02,03,04,05,06,07,08,09,10,11,12,1.0,1.0,1.0*30
$GPRMC,015346.598,A,4355.385,N,07926.663,W,001.9,259.2,090623,000.0,W*63
$GPGGA,015347.598,4355.385,N,07926.664,W,1,12,1.0,0.0,M,0.0,M,,*7B
$GPGSA,A,3,01,02,03,04,05,06,07,08,09,10,11,12,1.0,1.0,1.0*30
$GPRMC,015347.598,A,4355.385,N,07926.664,W,001.9,259.2,090623,000.0,W*65
$GPGGA,015348.598,4355.385,N,07926.665,W,1,12,1.0,0.0,M,0.0,M,,*75
$GPGSA,A,3,01,02,03,04,05,06,07,08,09,10,11,12,1.0,1.0,1.0*30
$GPRMC,015348.598,A,4355.385,N,07926.665,W,001.9,259.2,090623,000.0,W*6B
$GPGGA,015349.598,4355.385,N,07926.665,W,1,12,1.0,0.0,M,0.0,M,,*74
$GPGSA,A,3,01,02,03,04,05,06,07,08,09,10,11,12,1.0,1.0,1.0*30
$GPRMC,015349.598,A,4355.385,N,07926.665,W,001.9,259.2,090623,000.0,W*6A
$GPGGA,015350.598,4355.384,N,07926.666,W,1,12,1.0,0.0,M,0.0,M,,*7E
$GPGSA,A,3,01,02,03,04,05,06,07,08,09,10,11,12,1.0,1.0,1.0*30
$GPRMC,015350.598,A,4355.384,N,07926.666,W,001.9,259.2,090623,000.0,W*60
$GPGGA,015351.598,4355.384,N,07926.667,W,1,12,1.0,0.0,M,0.0,M,,*7E
$GPGSA,A,3,01,02,03,04,05,06,07,08,09,10,11,12,1.0,1.0,1.0*30
$GPRMC,015351.598,A,4355.384,N,07926.667,W,001.9,259.2,090623,000.0,W*60
$GPGGA,015352.598,4355.384,N,07926.668,W,1,12,1.0,0.0,M,0.0,M,,*72
$GPGSA,A,3,01,02,03,04,05,06,07,08,09,10,11,12,1.0,1.0,1.0*30
$GPRMC,015352.598,A,4355.384,N,07926.668,W,001.9,259.2,090623,000.0,W*6C
$GPGGA,015353.598,4355.384,N,07926.668,W,1,12,1.0,0.0,M,0.0,M,,*73
$GPGSA,A,3,01,02,03,04,05,06,07,08,09,10,11,12,1.0,1.0,1.0*30
$GPRMC,015353.598,A,4355.384,N,07926.668,W,001.9,259.2,090623,000.0,W*6D
$GPGGA,015354.598,4355.384,N,07926.669,W,1,12,1.0,0.0,M,0.0,M,,*75
$GPGSA,A,3,01,02,03,04,05,06,07,08,09,10,11,12,1.0,1.0,1.0*30
$GPRMC,015354.598,A,4355.384,N,07926.669,W,001.9,259.2,090623,000.0,W*6B
$GPGGA,015355.598,4355.384,N,07926.670,W,1,12,1.0,0.0,M,0.0,M,,*7C
$GPGSA,A,3,01,02,03,04,05,06,07,08,09,10,11,12,1.0,1.0,1.0*30
$GPRMC,015355.598,A,4355.384,N,07926.670,W,001.9,259.2,090623,000.0,W*62
$GPGGA,015356.598,4355.384,N,07926.671,W,1,12,1.0,0.0,M,0.0,M,,*7E
$GPGSA,A,3,01,02,03,04,05,06,07,08,09,10,11,12,1.0,1.0,1.0*30
$GPRMC,015356.598,A,4355.384,N,07926.671,W,001.9,259.2,090623,000.0,W*60
$GPGGA,015357.598,4355.384,N,07926.671,W,1,12,1.0,0.0,M,0.0,M,,*7F
$GPGSA,A,3,01,02,03,04,05,06,07,08,09,10,11,12,1.0,1.0,1.0*30
$GPRMC,015357.598,A,4355.384,N,07926.671,W,001.9,259.2,090623,000.0,W*61
$GPGGA,015358.598,4355.383,N,07926.672,W,1,12,1.0,0.0,M,0.0,M,,*74
$GPGSA,A,3,01,02,03,04,05,06,07,08,09,10,11,12,1.0,1.0,1.0*30
$GPRMC,015358.598,A,4355.383,N,07926.672,W,001.9,259.2,090623,000.0,W*6A
$GPGGA,015359.598,4355.383,N,07926.673,W,1,12,1.0,0.0,M,0.0,M,,*74
$GPGSA,A,3,01,02,03,04,05,06,07,08,09,10,11,12,1.0,1.0,1.0*30
$GPRMC,015359.598,A,4355.383,N,07926.673,W,001.9,259.2,090623,000.0,W*6A
$GPGGA,015400.598,4355.383,N,07926.673,W,1,12,1.0,0.0,M,0.0,M,,*7F
$GPGSA,A,3,01,02,03,04,05,06,07,08,09,10,11,12,1.0,1.0,1.0*30
$GPRMC,015400.598,A,4355.383,N,07926.673,W,001.9,259.2,090623,000.0,W*61
$GPGGA,015401.598,4355.383,N,07926.674,W,1,12,1.0,0.0,M,0.0,M,,*79
$GPGSA,A,3,01,02,03,04,05,06,07,08,09,10,11,12,1.0,1.0,1.0*30
$GPRMC,015401.598,A,4355.383,N,07926.674,W,001.9,259.2,090623,000.0,W*67
$GPGGA,015402.598,4355.383,N,07926.675,W,1,12,1.0,0.0,M,0.0,M,,*7B
$GPGSA,A,3,01,02,03,04,05,06,07,08,09,10,11,12,1.0,1.0,1.0*30
$GPRMC,015402.598,A,4355.383,N,07926.675,W,001.9,259.2,090623,000.0,W*65
$GPGGA,015403.598,4355.383,N,07926.676,W,1,12,1.0,0.0,M,0.0,M,,*79
$GPGSA,A,3,01,02,03,04,05,06,07,08,09,10,11,12,1.0,1.0,1.0*30
$GPRMC,015403.598,A,4355.383,N,07926.676,W,001.9,259.2,090623,000.0,W*67
$GPGGA,015404.598,4355.383,N,07926.676,W,1,12,1.0,0.0,M,0.0,M,,*7E
$GPGSA,A,3,01,02,03,04,05,06,07,08,09,10,11,12,1.0,1.0,1.0*30
$GPRMC,015404.598,A,4355.383,N,07926.676,W,001.9,259.2,090623,000.0,W*60
$GPGGA,015405.598,4355.382,N,07926.677,W,1,12,1.0,0.0,M,0.0,M,,*7F
$GPGSA,A,3,01,02,03,04,05,06,07,08,09,10,11,12,1.0,1.0,1.0*30
$GPRMC,015405.598,A,4355.382,N,07926.677,W,001.9,259.2,090623,000.0,W*61
$GPGGA,015406.598,4355.382,N,07926.678,W,1,12,1.0,0.0,M,0.0,M,,*73
$GPGSA,A,3,01,02,03,04,05,06,07,08,09,10,11,12,1.0,1.0,1.0*30
$GPRMC,015406.598,A,4355.382,N,07926.678,W,001.9,259.2,090623,000.0,W*6D
$GPGGA,015407.598,4355.382,N,07926.679,W,1,12,1.0,0.0,M,0.0,M,,*73
$GPGSA,A,3,01,02,03,04,05,06,07,08,09,10,11,12,1.0,1.0,1.0*30
$GPRMC,015407.598,A,4355.382,N,07926.679,W,001.9,259.2,090623,000.0,W*6D
$GPGGA,015408.598,4355.382,N,07926.679,W,1,12,1.0,0.0,M,0.0,M,,*7C
$GPGSA,A,3,01,02,03,04,05,06,07,08,09,10,11,12,1.0,1.0,1.0*30
$GPRMC,015408.598,A,4355.382,N,07926.679,W,001.9,259.2,090623,000.0,W*62
$GPGGA,015409.598,4355.382,N,07926.680,W,1,12,1.0,0.0,M,0.0,M,,*7B
$GPGSA,A,3,01,02,03,04,05,06,07,08,09,10,11,12,1.0,1.0,1.0*30
$GPRMC,015409.598,A,4355.382,N,07926.680,W,001.9,259.2,090623,000.0,W*65
$GPGGA,015410.598,4355.382,N,07926.681,W,1,12,1.0,0.0,M,0.0,M,,*72
$GPGSA,A,3,01,02,03,04,05,06,07,08,09,10,11,12,1.0,1.0,1.0*30
$GPRMC,015410.598,A,4355.382,N,07926.681,W,001.9,259.2,090623,000.0,W*6C
$GPGGA,015411.598,4355.382,N,07926.681,W,1,12,1.0,0.0,M,0.0,M,,*73
$GPGSA,A,3,01,02,03,04,05,06,07,08,09,10,11,12,1.0,1.0,1.0*30
$GPRMC,015411.598,A,4355.382,N,07926.681,W,001.9,259.2,090623,000.0,W*6D
$GPGGA,015412.598,4355.381,N,07926.682,W,1,12,1.0,0.0,M,0.0,M,,*70
$GPGSA,A,3,01,02,03,04,05,06,07,08,09,10,11,12,1.0,1.0,1.0*30
$GPRMC,015412.598,A,4355.381,N,07926.682,W,001.9,259.2,090623,000.0,W*6E
$GPGGA,015413.598,4355.381,N,07926.683,W,1,12,1.0,0.0,M,0.0,M,,*70
$GPGSA,A,3,01,02,03,04,05,06,07,08,09,10,11,12,1.0,1.0,1.0*30
$GPRMC,015413.598,A,4355.381,N,07926.683,W,001.9,259.2,090623,000.0,W*6E
$GPGGA,015414.598,4355.381,N,07926.684,W,1,12,1.0,0.0,M,0.0,M,,*70
$GPGSA,A,3,01,02,03,04,05,06,07,08,09,10,11,12,1.0,1.0,1.0*30
$GPRMC,015414.598,A,4355.381,N,07926.684,W,001.9,259.2,090623,000.0,W*6E
$GPGGA,015415.598,4355.381,N,07926.684,W,1,12,1.0,0.0,M,0.0,M,,*71
$GPGSA,A,3,01,02,03,04,05,06,07,08,09,10,11,12,1.0,1.0,1.0*30
$GPRMC,015415.598,A,4355.381,N,07926.684,W,001.9,259.2,090623,000.0,W*6F
$GPGGA,015416.598,4355.381,N,07926.685,W,1,12,1.0,0.0,M,0.0,M,,*73
$GPGSA,A,3,01,02,03,04,05,06,07,08,09,10,11,12,1.0,1.0,1.0*30
$GPRMC,015416.598,A,4355.381,N,07926.685,W,001.9,259.2,090623,000.0,W*6D
$GPGGA,015417.598,4355.381,N,07926.686,W,1,12,1.0,0.0,M,0.0,M,,*71
$GPGSA,A,3,01,02,03,04,05,06,07,08,09,10,11,12,1.0,1.0,1.0*30
$GPRMC,015417.598,A,4355.381,N,07926.686,W,001.9,259.2,090623,000.0,W*6F
$GPGGA,015418.598,4355.381,N,07926.687,W,1,12,1.0,0.0,M,0.0,M,,*7F
$GPGSA,A,3,01,02,03,04,05,06,07,08,09,10,11,12,1.0,1.0,1.0*30
$GPRMC,015418.598,A,4355.381,N,07926.687,W,001.9,259.2,090623,000.0,W*61
$GPGGA,015419.598,4355.380,N,07926.687,W,1,12,1.0,0.0,M,0.0,M,,*7F
$GPGSA,A,3,01,02,03,04,05,06,07,08,09,10,11,12,1.0,1.0,1.0*30
$GPRMC,015419.598,A,4355.380,N,07926.687,W,001.9,259.2,090623,000.0,W*61
$GPGGA,015420.598,4355.380,N,07926.688,W,1,12,1.0,0.0,M,0.0,M,,*7A
$GPGSA,A,3,01,02,03,04,05,06,07,08,09,10,11,12,1.0,1.0,1.0*30
$GPRMC,015420.598,A,4355.380,N,07926.688,W,001.9,259.2,090623,000.0,W*64
$GPGGA,015421.598,4355.380,N,07926.689,W,1,12,1.0,0.0,M,0.0,M,,*7A
$GPGSA,A,3,01,02,03,04,05,06,07,08,09,10,11,12,1.0,1.0,1.0*30
$GPRMC,015421.598,A,4355.380,N,07926.689,W,001.9,259.2,090623,000.0,W*64
$GPGGA,015422.598,4355.380,N,07926.689,W,1,12,1.0,0.0,M,0.0,M,,*79
$GPGSA,A,3,01,02,03,04,05,06,07,08,09,10,11,12,1.0,1.0,1.0*30
$GPRMC,015422.598,A,4355.380,N,07926.689,W,001.9,259.2,090623,000.0,W*67
$GPGGA,015423.598,4355.380,N,07926.690,W,1,12,1.0,0.0,M,0.0,M,,*70
$GPGSA,A,3,01,02,03,04,05,06,07,08,09,10,11,12,1.0,1.0,1.0*30
$GPRMC,015423.598,A,4355.380,N,07926.690,W,001.9,259.2,090623,000.0,W*6E
$GPGGA,015424.598,4355.380,N,07926.691,W,1,12,1.0,0.0,M,0.0,M,,*76
$GPGSA,A,3,01,02,03,04,05,06,07,08,09,10,11,12,1.0,1.0,1.0*30
$GPRMC,015424.598,A,4355.380,N,07926.691,W,001.9,259.2,090623,000.0,W*68
$GPGGA,015425.598,4355.380,N,07926.692,W,1,12,1.0,0.0,M,0.0,M,,*74
$GPGSA,A,3,01,02,03,04,05,06,07,08,09,10,11,12,1.0,1.0,1.0*30
$GPRMC,015425.598,A,4355.380,N,07926.692,W,001.9,259.2,090623,000.0,W*6A
$GPGGA,015426.598,4355.380,N,07926.692,W,1,12,1.0,0.0,M,0.0,M,,*77
$GPGSA,A,3,01,02,03,04,05,06,07,08,09,10,11,12,1.0,1.0,1.0*30
$GPRMC,015426.598,A,4355.380,N,07926.692,W,001.9,259.2,090623,000.0,W*69
$GPGGA,015427.598,4355.379,N,07926.693,W,1,12,1.0,0.0,M,0.0,M,,*71
$GPGSA,A,3,01,02,03,04,05,06,07,08,09,10,11,12,1.0,1.0,1.0*30
$GPRMC,015427.598,A,4355.379,N,07926.693,W,001.9,259.2,090623,000.0,W*6F
$GPGGA,015428.598,4355.379,N,07926.694,W,1,12,1.0,0.0,M,0.0,M,,*79
$GPGSA,A,3,01,02,03,04,05,06,07,08,09,10,11,12,1.0,1.0,1.0*30
$GPRMC,015428.598,A,4355.379,N,07926.694,W,001.9,259.2,090623,000.0,W*67
$GPGGA,015429.598,4355.379,N,07926.694,W,1,12,1.0,0.0,M,0.0,M,,*78
$GPGSA,A,3,01,02,03,04,05,06,07,08,09,10,11,12,1.0,1.0,1.0*30
$GPRMC,015429.598,A,4355.379,N,07926.694,W,001.9,259.2,090623,000.0,W*66
$GPGGA,015430.598,4355.379,N,07926.695,W,1,12,1.0,0.0,M,0.0,M,,*71
$GPGSA,A,3,01,02,03,04,05,06,07,08,09,10,11,12,1.0,1.0,1.0*30
$GPRMC,015430.598,A,4355.379,N,07926.695,W,001.9,259.2,090623,000.0,W*6F
$GPGGA,015431.598,4355.379,N,07926.696,W,1,12,1.0,0.0,M,0.0,M,,*73
$GPGSA,A,3,01,02,03,04,05,06,07,08,09,10,11,12,1.0,1.0,1.0*30
$GPRMC,015431.598,A,4355.379,N,07926.696,W,001.9,259.2,090623,000.0,W*6D
$GPGGA,015432.598,4355.379,N,07926.697,W,1,12,1.0,0.0,M,0.0,M,,*71
$GPGSA,A,3,01,02,03,04,05,06,07,08,09,10,11,12,1.0,1.0,1.0*30
$GPRMC,015432.598,A,4355.379,N,07926.697,W,001.9,259.2,090623,000.0,W*6F
$GPGGA,015433.598,4355.379,N,07926.697,W,1,12,1.0,0.0,M,0.0,M,,*70
$GPGSA,A,3,01,02,03,04,05,06,07,08,09,10,11,12,1.0,1.0,1.0*30
$GPRMC,015433.598,A,4355.379,N,07926.697,W,001.9,259.2,090623,000.0,W*6E
$GPGGA,015434.598,4355.378,N,07926.698,W,1,12,1.0,0.0,M,0.0,M,,*79
$GPGSA,A,3,01,02,03,04,05,06,07,08,09,10,11,12,1.0,1.0,1.0*30
$GPRMC,015434.598,A,4355.378,N,07926.698,W,001.9,259.2,090623,000.0,W*67
$GPGGA,015435.598,4355.378,N,07926.699,W,1,12,1.0,0.0,M,0.0,M,,*79
$GPGSA,A,3,01,02,03,04,05,06,07,08,09,10,11,12,1.0,1.0,1.0*30
$GPRMC,015435.598,A,4355.378,N,07926.699,W,001.9,259.2,090623,000.0,W*67
$GPGGA,015436.598,4355.378,N,07926.700,W,1,12,1.0,0.0,M,0.0,M,,*7B
$GPGSA,A,3,01,02,03,04,05,06,07,08,09,10,11,12,1.0,1.0,1.0*30
$GPRMC,015436.598,A,4355.378,N,07926.700,W,001.9,259.2,090623,000.0,W*65
$GPGGA,015437.598,4355.378,N,07926.700,W,1,12,1.0,0.0,M,0.0,M,,*7A
$GPGSA,A,3,01,02,03,04,05,06,07,08,09,10,11,12,1.0,1.0,1.0*30
$GPRMC,015437.598,A,4355.378,N,07926.700,W,001.9,259.2,090623,000.0,W*64
$GPGGA,015438.598,4355.378,N,07926.701,W,1,12,1.0,0.0,M,0.0,M,,*74
$GPGSA,A,3,01,02,03,04,05,06,07,08,09,10,11,12,1.0,1.0,1.0*30
$GPRMC,015438.598,A,4355.378,N,07926.701,W,001.9,259.2,090623,000.0,W*6A
$GPGGA,015439.598,4355.378,N,07926.702,W,1,12,1.0,0.0,M,0.0,M,,*76
$GPGSA,A,3,01,02,03,04,05,06,07,08,09,10,11,12,1.0,1.0,1.0*30
$GPRMC,015439.598,A,4355.378,N,07926.702,W,001.9,259.2,090623,000.0,W*68
$GPGGA,015440.598,4355.378,N,07926.702,W,1,12,1.0,0.0,M,0.0,M,,*78
$GPGSA,A,3,01,02,03,04,05,06,07,08,09,10,11,12,1.0,1.0,1.0*30
$GPRMC,015440.598,A,4355.378,N,07926.702,W,001.9,259.2,090623,000.0,W*66
$GPGGA,015441.598,4355.377,N,07926.703,W,1,12,1.0,0.0,M,0.0,M,,*77
$GPGSA,A,3,01,02,03,04,05,06,07,08,09,10,11,12,1.0,1.0,1.0*30
$GPRMC,015441.598,A,4355.377,N,07926.703,W,001.9,259.2,090623,000.0,W*69
$GPGGA,015442.598,4355.377,N,07926.704,W,1,12,1.0,0.0,M,0.0,M,,*73
$GPGSA,A,3,01,02,03,04,05,06,07,08,09,10,11,12,1.0,1.0,1.0*30
$GPRMC,015442.598,A,4355.377,N,07926.704,W,001.9,259.2,090623,000.0,W*6D
$GPGGA,015443.598,4355.377,N,07926.705,W,1,12,1.0,0.0,M,0.0,M,,*73
$GPGSA,A,3,01,02,03,04,05,06,07,08,09,10,11,12,1.0,1.0,1.0*30
$GPRMC,015443.598,A,4355.377,N,07926.705,W,001.9,259.2,090623,000.0,W*6D
$GPGGA,015444.598,4355.377,N,07926.705,W,1,12,1.0,0.0,M,0.0,M,,*74
$GPGSA,A,3,01,02,03,04,05,06,07,08,09,10,11,12,1.0,1.0,1.0*30
$GPRMC,015444.598,A,4355.377,N,07926.705,W,001.9,259.2,090623,000.0,W*6A
$GPGGA,015445.598,4355.377,N,07926.706,W,1,12,1.0,0.0,M,0.0,M,,*76
$GPGSA,A,3,01,02,03,04,05,06,07,08,09,10,11,12,1.0,1.0,1.0*30
$GPRMC,015445.598,A,4355.377,N,07926.706,W,001.9,259.2,090623,000.0,W*68
$GPGGA,015446.598,4355.377,N,07926.707,W,1,12,1.0,0.0,M,0.0,M,,*74
$GPGSA,A,3,01,02,03,04,05,06,07,08,09,10,11,12,1.0,1.0,1.0*30
$GPRMC,015446.598,A,4355.377,N,07926.707,W,001.9,259.2,090623,000.0,W*6A
$GPGGA,015447.598,4355.377,N,07926.708,W,1,12,1.0,0.0,M,0.0,M,,*7A
$GPGSA,A,3,01,02,03,04,05,06,07,08,09,10,11,12,1.0,1.0,1.0*30
$GPRMC,015447.598,A,4355.377,N,07926.708,W,001.9,259.2,090623,000.0,W*64
$GPGGA,015448.598,4355.377,N,07926.708,W,1,12,1.0,0.0,M,0.0,M,,*75
$GPGSA,A,3,01,02,03,04,05,06,07,08,09,10,11,12,1.0,1.0,1.0*30
$GPRMC,015448.598,A,4355.377,N,07926.708,W,001.9,259.2,090623,000.0,W*6B
$GPGGA,015449.598,4355.376,N,07926.709,W,1,12,1.0,0.0,M,0.0,M,,*74
$GPGSA,A,3,01,02,03,04,05,06,07,08,09,10,11,12,1.0,1.0,1.0*30
$GPRMC,015449.598,A,4355.376,N,07926.709,W,001.9,259.2,090623,000.0,W*6A
$GPGGA,015450.598,4355.376,N,07926.710,W,1,12,1.0,0.0,M,0.0,M,,*74
$GPGSA,A,3,01,02,03,04,05,06,07,08,09,10,11,12,1.0,1.0,1.0*30
$GPRMC,015450.598,A,4355.376,N,07926.710,W,001.9,259.2,090623,000.0,W*6A
$GPGGA,015451.598,4355.376,N,07926.710,W,1,12,1.0,0.0,M,0.0,M,,*75
$GPGSA,A,3,01,02,03,04,05,06,07,08,09,10,11,12,1.0,1.0,1.0*30
$GPRMC,015451.598,A,4355.376,N,07926.710,W,001.9,259.2,090623,000.0,W*6B
$GPGGA,015452.598,4355.376,N,07926.711,W,1,12,1.0,0.0,M,0.0,M,,*77
$GPGSA,A,3,01,02,03,04,05,06,07,08,09,10,11,12,1.0,1.0,1.0*30
$GPRMC,015452.598,A,4355.376,N,07926.711,W,001.9,259.2,090623,000.0,W*69
$GPGGA,015453.598,4355.376,N,07926.712,W,1,12,1.0,0.0,M,0.0,M,,*75
$GPGSA,A,3,01,02,03,04,05,06,07,08,09,10,11,12,1.0,1.0,1.0*30
$GPRMC,015453.598,A,4355.376,N,07926.712,W,001.9,259.2,090623,000.0,W*6B
$GPGGA,015454.598,4355.376,N,07926.713,W,1,12,1.0,0.0,M,0.0,M,,*73
$GPGSA,A,3,01,02,03,04,05,06,07,08,09,10,11,12,1.0,1.0,1.0*30
$GPRMC,015454.598,A,4355.376,N,07926.713,W,001.9,259.2,090623,000.0,W*6D
$GPGGA,015455.598,4355.376,N,07926.713,W,1,12,1.0,0.0,M,0.0,M,,*72
$GPGSA,A,3,01,02,03,04,05,06,07,08,09,10,11,12,1.0,1.0,1.0*30
$GPRMC,015455.598,A,4355.376,N,07926.713,W,001.9,259.2,090623,000.0,W*6C
$GPGGA,015456.598,4355.375,N,07926.714,W,1,12,1.0,0.0,M,0.0,M,,*75
$GPGSA,A,3,01,02,03,04,05,06,07,08,09,10,11,12,1.0,1.0,1.0*30
$GPRMC,015456.598,A,4355.375,N,07926.714,W,001.9,259.2,090623,000.0,W*6B
$GPGGA,015457.598,4355.375,N,07926.715,W,1,12,1.0,0.0,M,0.0,M,,*75
$GPGSA,A,3,01,02,03,04,05,06,07,08,09,10,11,12,1.0,1.0,1.0*30
$GPRMC,015457.598,A,4355.375,N,07926.715,W,001.9,259.2,090623,000.0,W*6B
$GPGGA,015458.598,4355.375,N,07926.715,W,1,12,1.0,0.0,M,0.0,M,,*7A
$GPGSA,A,3,01,02,03,04,05,06,07,08,09,10,11,12,1.0,1.0,1.0*30
$GPRMC,015458.598,A,4355.375,N,07926.715,W,001.9,259.2,090623,000.0,W*64
$GPGGA,015459.598,4355.375,N,07926.716,W,1,12,1.0,0.0,M,0.0,M,,*78
$GPGSA,A,3,01,02,03,04,05,06,07,08,09,10,11,12,1.0,1.0,1.0*30
$GPRMC,015459.598,A,4355.375,N,07926.716,W,001.9,259.2,090623,000.0,W*66
$GPGGA,015500.598,4355.375,N,07926.717,W,1,12,1.0,0.0,M,0.0,M,,*74
$GPGSA,A,3,01,02,03,04,05,06,07,08,09,10,11,12,1.0,1.0,1.0*30
$GPRMC,015500.598,A,4355.375,N,07926.717,W,001.9,259.2,090623,000.0,W*6A
$GPGGA,015501.598,4355.375,N,07926.718,W,1,12,1.0,0.0,M,0.0,M,,*7A
$GPGSA,A,3,01,02,03,04,05,06,07,08,09,10,11,12,1.0,1.0,1.0*30
$GPRMC,015501.598,A,4355.375,N,07926.718,W,001.9,259.2,090623,000.0,W*64
$GPGGA,015502.598,4355.375,N,07926.718,W,1,12,1.0,0.0,M,0.0,M,,*79
$GPGSA,A,3,01,02,03,04,05,06,07,08,09,10,11,12,1.0,1.0,1.0*30
$GPRMC,015502.598,A,4355.375,N,07926.718,W,001.9,259.2,090623,000.0,W*67
$GPGGA,015503.598,4355.374,N,07926.719,W,1,12,1.0,0.0,M,0.0,M,,*78
$GPGSA,A,3,01,02,03,04,05,06,07,08,09,10,11,12,1.0,1.0,1.0*30
$GPRMC,015503.598,A,4355.374,N,07926.719,W,001.9,259.2,090623,000.0,W*66
$GPGGA,015504.598,4355.374,N,07926.720,W,1,12,1.0,0.0,M,0.0,M,,*75
$GPGSA,A,3,01,02,03,04,05,06,07,08,09,10,11,12,1.0,1.0,1.0*30
$GPRMC,015504.598,A,4355.374,N,07926.720,W,001.9,259.2,090623,000.0,W*6B
$GPGGA,015505.598,4355.374,N,07926.721,W,1,12,1.0,0.0,M,0.0,M,,*75
$GPGSA,A,3,01,02,03,04,05,06,07,08,09,10,11,12,1.0,1.0,1.0*30
$GPRMC,015505.598,A,4355.374,N,07926.721,W,001.9,259.2,090623,000.0,W*6B
$GPGGA,015506.598,4355.374,N,07926.721,W,1,12,1.0,0.0,M,0.0,M,,*76
$GPGSA,A,3,01,02,03,04,05,06,07,08,09,10,11,12,1.0,1.0,1.0*30
$GPRMC,015506.598,A,4355.374,N,07926.721,W,001.9,259.2,090623,000.0,W*68
$GPGGA,015507.598,4355.374,N,07926.722,W,1,12,1.0,0.0,M,0.0,M,,*74
$GPGSA,A,3,01,02,03,04,05,06,07,08,09,10,11,12,1.0,1.0,1.0*30
$GPRMC,015507.598,A,4355.374,N,07926.722,W,001.9,259.2,090623,000.0,W*6A
$GPGGA,015508.598,4355.374,N,07926.723,W,1,12,1.0,0.0,M,0.0,M,,*7A
$GPGSA,A,3,01,02,03,04,05,06,07,08,09,10,11,12,1.0,1.0,1.0*30
$GPRMC,015508.598,A,4355.374,N,07926.723,W,001.9,259.2,090623,000.0,W*64
$GPGGA,015509.598,4355.374,N,07926.723,W,1,12,1.0,0.0,M,0.0,M,,*7B
$GPGSA,A,3,01,02,03,04,05,06,07,08,09,10,11,12,1.0,1.0,1.0*30
$GPRMC,015509.598,A,4355.374,N,07926.723,W,001.9,259.2,090623,000.0,W*65
$GPGGA,015510.598,4355.374,N,07926.724,W,1,12,1.0,0.0,M,0.0,M,,*74
$GPGSA,A,3,01,02,03,04,05,06,07,08,09,10,11,12,1.0,1.0,1.0*30
$GPRMC,015510.598,A,4355.374,N,07926.724,W,001.9,259.2,090623,000.0,W*6A
$GPGGA,015511.598,4355.373,N,07926.725,W,1,12,1.0,0.0,M,0.0,M,,*73
$GPGSA,A,3,01,02,03,04,05,06,07,08,09,10,11,12,1.0,1.0,1.0*30
$GPRMC,015511.598,A,4355.373,N,07926.725,W,001.9,259.2,090623,000.0,W*6D
$GPGGA,015512.598,4355.373,N,07926.726,W,1,12,1.0,0.0,M,0.0,M,,*73
$GPGSA,A,3,01,02,03,04,05,06,07,08,09,10,11,12,1.0,1.0,1.0*30
$GPRMC,015512.598,A,4355.373,N,07926.726,W,001.9,259.2,090623,000.0,W*6D
$GPGGA,015513.598,4355.373,N,07926.726,W,1,12,1.0,0.0,M,0.0,M,,*72
$GPGSA,A,3,01,02,03,04,05,06,07,08,09,10,11,12,1.0,1.0,1.0*30
$GPRMC,015513.598,A,4355.373,N,07926.726,W,001.9,259.2,090623,000.0,W*6C
$GPGGA,015514.598,4355.373,N,07926.727,W,1,12,1.0,0.0,M,0.0,M,,*74
$GPGSA,A,3,01,02,03,04,05,06,07,08,09,10,11,12,1.0,1.0,1.0*30
$GPRMC,015514.598,A,4355.373,N,07926.727,W,001.9,259.2,090623,000.0,W*6A
$GPGGA,015515.598,4355.373,N,07926.728,W,1,12,1.0,0.0,M,0.0,M,,*7A
$GPGSA,A,3,01,02,03,04,05,06,07,08,09,10,11,12,1.0,1.0,1.0*30
$GPRMC,015515.598,A,4355.373,N,07926.728,W,001.9,259.2,090623,000.0,W*64
$GPGGA,015516.598,4355.373,N,07926.729,W,1,12,1.0,0.0,M,0.0,M,,*78
$GPGSA,A,3,01,02,03,04,05,06,07,08,09,10,11,12,1.0,1.0,1.0*30
$GPRMC,015516.598,A,4355.373,N,07926.729,W,001.9,259.2,090623,000.0,W*66
$GPGGA,015517.598,4355.373,N,07926.729,W,1,12,1.0,0.0,M,0.0,M,,*79
$GPGSA,A,3,01,02,03,04,05,06,07,08,09,10,11,12,1.0,1.0,1.0*30
$GPRMC,015517.598,A,4355.373,N,07926.729,W,001.9,259.2,090623,000.0,W*67
$GPGGA,015518.598,4355.372,N,07926.730,W,1,12,1.0,0.0,M,0.0,M,,*7F
$GPGSA,A,3,01,02,03,04,05,06,07,08,09,10,11,12,1.0,1.0,1.0*30
$GPRMC,015518.598,A,4355.372,N,07926.730,W,001.9,259.2,090623,000.0,W*61
$GPGGA,015519.598,4355.372,N,07926.731,W,1,12,1.0,0.0,M,0.0,M,,*7F
$GPGSA,A,3,01,02,03,04,05,06,07,08,09,10,11,12,1.0,1.0,1.0*30
$GPRMC,015519.598,A,4355.372,N,07926.731,W,001.9,259.2,090623,000.0,W*61
$GPGGA,015520.598,4355.372,N,07926.731,W,1,12,1.0,0.0,M,0.0,M,,*75
$GPGSA,A,3,01,02,03,04,05,06,07,08,09,10,11,12,1.0,1.0,1.0*30
$GPRMC,015520.598,A,4355.372,N,07926.731,W,001.9,259.2,090623,000.0,W*6B
$GPGGA,015521.598,4355.372,N,07926.732,W,1,12,1.0,0.0,M,0.0,M,,*77
$GPGSA,A,3,01,02,03,04,05,06,07,08,09,10,11,12,1.0,1.0,1.0*30
$GPRMC,015521.598,A,4355.372,N,07926.732,W,001.9,259.2,090623,000.0,W*69
$GPGGA,015522.598,4355.372,N,07926.733,W,1,12,1.0,0.0,M,0.0,M,,*75
$GPGSA,A,3,01,02,03,04,05,06,07,08,09,10,11,12,1.0,1.0,1.0*30
$GPRMC,015522.598,A,4355.372,N,07926.733,W,001.9,259.2,090623,000.0,W*6B
$GPGGA,015523.598,4355.372,N,07926.734,W,1,12,1.0,0.0,M,0.0,M,,*73
$GPGSA,A,3,01,02,03,04,05,06,07,08,09,10,11,12,1.0,1.0,1.0*30
$GPRMC,015523.598,A,4355.372,N,07926.734,W,001.9,259.2,090623,000.0,W*6D
$GPGGA,015524.598,4355.372,N,07926.734,W,1,12,1.0,0.0,M,0.0,M,,*74
$GPGSA,A,3,01,02,03,04,05,06,07,08,09,10,11,12,1.0,1.0,1.0*30
$GPRMC,015524.598,A,4355.372,N,07926.734,W,001.9,259.2,090623,000.0,W*6A
$GPGGA,015525.598,4355.371,N,07926.735,W,1,12,1.0,0.0,M,0.0,M,,*77
$GPGSA,A,3,01,02,03,04,05,06,07,08,09,10,11,12,1.0,1.0,1.0*30
$GPRMC,015525.598,A,4355.371,N,07926.735,W,001.9,259.2,090623,000.0,W*69
$GPGGA,015526.598,4355.371,N,07926.736,W,1,12,1.0,0.0,M,0.0,M,,*77
$GPGSA,A,3,01,02,03,04,05,06,07,08,09,10,11,12,1.0,1.0,1.0*30
$GPRMC,015526.598,A,4355.371,N,07926.736,W,001.9,259.2,090623,000.0,W*69
$GPGGA,015527.598,4355.371,N,07926.736,W,1,12,1.0,0.0,M,0.0,M,,*76
$GPGSA,A,3,01,02,03,04,05,06,07,08,09,10,11,12,1.0,1.0,1.0*30
$GPRMC,015527.598,A,4355.371,N,07926.736,W,001.9,259.2,090623,000.0,W*68
$GPGGA,015528.598,4355.371,N,07926.737,W,1,12,1.0,0.0,M,0.0,M,,*78
$GPGSA,A,3,01,02,03,04,05,06,07,08,09,10,11,12,1.0,1.0,1.0*30
$GPRMC,015528.598,A,4355.371,N,07926.737,W,001.9,259.2,090623,000.0,W*66
$GPGGA,015529.598,4355.371,N,07926.738,W,1,12,1.0,0.0,M,0.0,M,,*76
$GPGSA,A,3,01,02,03,04,05,06,07,08,09,10,11,12,1.0,1.0,1.0*30
$GPRMC,015529.598,A,4355.371,N,07926.738,W,001.9,259.2,090623,000.0,W*68
$GPGGA,015530.598,4355.371,N,07926.739,W,1,12,1.0,0.0,M,0.0,M,,*7F
$GPGSA,A,3,01,02,03,04,05,06,07,08,09,10,11,12,1.0,1.0,1.0*30
$GPRMC,015530.598,A,4355.371,N,07926.739,W,001.9,259.2,090623,000.0,W*61
$GPGGA,015531.598,4355.371,N,07926.739,W,1,12,1.0,0.0,M,0.0,M,,*7E
$GPGSA,A,3,01,02,03,04,05,06,07,08,09,10,11,12,1.0,1.0,1.0*30
$GPRMC,015531.598,A,4355.371,N,07926.739,W,001.9,259.2,090623,000.0,W*60
$GPGGA,015532.598,4355.370,N,07926.740,W,1,12,1.0,0.0,M,0.0,M,,*72
$GPGSA,A,3,01,02,03,04,05,06,07,08,09,10,11,12,1.0,1.0,1.0*30
$GPRMC,015532.598,A,4355.370,N,07926.740,W,001.9,259.2,090623,000.0,W*6C
$GPGGA,015533.598,4355.370,N,07926.741,W,1,12,1.0,0.0,M,0.0,M,,*72
$GPGSA,A,3,01,02,03,04,05,06,07,08,09,10,11,12,1.0,1.0,1.0*30
$GPRMC,015533.598,A,4355.370,N,07926.741,W,001.9,259.2,090623,000.0,W*6C
$GPGGA,015534.598,4355.370,N,07926.742,W,1,12,1.0,0.0,M,0.0,M,,*76
$GPGSA,A,3,01,02,03,04,05,06,07,08,09,10,11,12,1.0,1.0,1.0*30
$GPRMC,015534.598,A,4355.370,N,07926.742,W,001.9,259.2,090623,000.0,W*68
$GPGGA,015535.598,4355.370,N,07926.742,W,1,12,1.0,0.0,M,0.0,M,,*77
$GPGSA,A,3,01,02,03,04,05,06,07,08,09,10,11,12,1.0,1.0,1.0*30
$GPRMC,015535.598,A,4355.370,N,07926.742,W,001.9,259.2,090623,000.0,W*69
$GPGGA,015536.598,4355.370,N,07926.743,W,1,12,1.0,0.0,M,0.0,M,,*75
$GPGSA,A,3,01,02,03,04,05,06,07,08,09,10,11,12,1.0,1.0,1.0*30
$GPRMC,015536.598,A,4355.370,N,07926.743,W,001.9,259.2,090623,000.0,W*6B
$GPGGA,015537.598,4355.370,N,07926.744,W,1,12,1.0,0.0,M,0.0,M,,*73
$GPGSA,A,3,01,02,03,04,05,06,07,08,09,10,11,12,1.0,1.0,1.0*30
$GPRMC,015537.598,A,4355.370,N,07926.744,W,001.9,259.2,090623,000.0,W*6D
$GPGGA,015538.598,4355.370,N,07926.744,W,1,12,1.0,0.0,M,0.0,M,,*7C
$GPGSA,A,3,01,02,03,04,05,06,07,08,09,10,11,12,1.0,1.0,1.0*30
$GPRMC,015538.598,A,4355.370,N,07926.744,W,001.9,259.2,090623,000.0,W*62
$GPGGA,015539.598,4355.370,N,07926.745,W,1,12,1.0,0.0,M,0.0,M,,*7C
$GPGSA,A,3,01,02,03,04,05,06,07,08,09,10,11,12,1.0,1.0,1.0*30
$GPRMC,015539.598,A,4355.370,N,07926.745,W,001.9,259.2,090623,000.0,W*62
$GPGGA,015540.598,4355.369,N,07926.746,W,1,12,1.0,0.0,M,0.0,M,,*79
$GPGSA,A,3,01,02,03,04,05,06,07,08,09,10,11,12,1.0,1.0,1.0*30
$GPRMC,015540.598,A,4355.369,N,07926.746,W,001.9,259.2,090623,000.0,W*67
$GPGGA,015541.598,4355.369,N,07926.747,W,1,12,1.0,0.0,M,0.0,M,,*79
$GPGSA,A,3,01,02,03,04,05,06,07,08,09,10,11,12,1.0,1.0,1.0*30
$GPRMC,015541.598,A,4355.369,N,07926.747,W,001.9,259.2,090623,000.0,W*67
$GPGGA,015542.598,4355.369,N,07926.747,W,1,12,1.0,0.0,M,0.0,M,,*7A
$GPGSA,A,3,01,02,03,04,05,06,07,08,09,10,11,12,1.0,1.0,1.0*30
$GPRMC,015542.598,A,4355.369,N,07926.747,W,001.9,259.2,090623,000.0,W*64
$GPGGA,015543.598,4355.369,N,07926.748,W,1,12,1.0,0.0,M,0.0,M,,*74
$GPGSA,A,3,01,02,03,04,05,06,07,08,09,10,11,12,1.0,1.0,1.0*30
$GPRMC,015543.598,A,4355.369,N,07926.748,W,001.9,259.2,090623,000.0,W*6A
$GPGGA,015544.598,4355.369,N,07926.749,W,1,12,1.0,0.0,M,0.0,M,,*72
$GPGSA,A,3,01,02,03,04,05,06,07,08,09,10,11,12,1.0,1.0,1.0*30
$GPRMC,015544.598,A,4355.369,N,07926.749,W,001.9,259.2,090623,000.0,W*6C
$GPGGA,015545.598,4355.369,N,07926.750,W,1,12,1.0,0.0,M,0.0,M,,*7B
$GPGSA,A,3,01,02,03,04,05,06,07,08,09,10,11,12,1.0,1.0,1.0*30
$GPRMC,015545.598,A,4355.369,N,07926.750,W,001.9,259.2,090623,000.0,W*65
$GPGGA,015546.598,4355.369,N,07926.750,W,1,12,1.0,0.0,M,0.0,M,,*78
$GPGSA,A,3,01,02,03,04,05,06,07,08,09,10,11,12,1.0,1.0,1.0*30
$GPRMC,015546.598,A,4355.369,N,07926.750,W,001.9,259.2,090623,000.0,W*66
$GPGGA,015547.598,4355.368,N,07926.751,W,1,12,1.0,0.0,M,0.0,M,,*79
$GPGSA,A,3,01,02,03,04,05,06,07,08,09,10,11,12,1.0,1.0,1.0*30
$GPRMC,015547.598,A,4355.368,N,07926.751,W,001.9,259.2,090623,000.0,W*67
$GPGGA,015548.598,4355.368,N,07926.752,W,1,12,1.0,0.0,M,0.0,M,,*75
$GPGSA,A,3,01,02,03,04,05,06,07,08,09,10,11,12,1.0,1.0,1.0*30
$GPRMC,015548.598,A,4355.368,N,07926.752,W,001.9,259.2,090623,000.0,W*6B
$GPGGA,015549.598,4355.368,N,07926.752,W,1,12,1.0,0.0,M,0.0,M,,*74
$GPGSA,A,3,01,02,03,04,05,06,07,08,09,10,11,12,1.0,1.0,1.0*30
$GPRMC,015549.598,A,4355.368,N,07926.752,W,001.9,259.2,090623,000.0,W*6A
$GPGGA,015550.598,4355.368,N,07926.753,W,1,12,1.0,0.0,M,0.0,M,,*7D
$GPGSA,A,3,01,02,03,04,05,06,07,08,09,10,11,12,1.0,1.0,1.0*30
$GPRMC,015550.598,A,4355.368,N,07926.753,W,001.9,259.2,090623,000.0,W*63
$GPGGA,015551.598,4355.368,N,07926.754,W,1,12,1.0,0.0,M,0.0,M,,*7B
$GPGSA,A,3,01,02,03,04,05,06,07,08,09,10,11,12,1.0,1.0,1.0*30
$GPRMC,015551.598,A,4355.368,N,07926.754,W,001.9,259.2,090623,000.0,W*65
$GPGGA,015552.598,4355.368,N,07926.755,W,1,12,1.0,0.0,M,0.0,M,,*79
$GPGSA,A,3,01,02,03,04,05,06,07,08,09,10,11,12,1.0,1.0,1.0*30
$GPRMC,015552.598,A,4355.368,N,07926.755,W,001.9,259.2,090623,000.0,W*67
$GPGGA,015553.598,4355.368,N,07926.755,W,1,12,1.0,0.0,M,0.0,M,,*78
$GPGSA,A,3,01,02,03,04,05,06,07,08,09,10,11,12,1.0,1.0,1.0*30
$GPRMC,015553.598,A,4355.368,N,07926.755,W,001.9,259.2,090623,000.0,W*66
$GPGGA,015554.598,4355.367,N,07926.756,W,1,12,1.0,0.0,M,0.0,M,,*73
$GPGSA,A,3,01,02,03,04,05,06,07,08,09,10,11,12,1.0,1.0,1.0*30
$GPRMC,015554.598,A,4355.367,N,07926.756,W,001.9,259.2,090623,000.0,W*6D
$GPGGA,015555.598,4355.367,N,07926.757,W,1,12,1.0,0.0,M,0.0,M,,*73
$GPGSA,A,3,01,02,03,04,05,06,07,08,09,10,11,12,1.0,1.0,1.0*30
$GPRMC,015555.598,A,4355.367,N,07926.757,W,001.9,318.5,090623,000.0,W*6E
$GPGGA,015556.598,4355.368,N,07926.757,W,1,12,1.0,0.0,M,0.0,M,,*7F
$GPGSA,A,3,01,02,03,04,05,06,07,08,09,10,11,12,1.0,1.0,1.0*30
$GPRMC,015556.598,A,4355.368,N,07926.757,W,001.9,318.5,090623,000.0,W*62
$GPGGA,015557.598,4355.368,N,07926.758,W,1,12,1.0,0.0,M,0.0,M,,*71
$GPGSA,A,3,01,02,03,04,05,06,07,08,09,10,11,12,1.0,1.0,1.0*30
$GPRMC,015557.598,A,4355.368,N,07926.758,W,001.9,318.5,090623,000.0,W*6C
$GPGGA,015558.598,4355.369,N,07926.758,W,1,12,1.0,0.0,M,0.0,M,,*7F
$GPGSA,A,3,01,02,03,04,05,06,07,08,09,10,11,12,1.0,1.0,1.0*30
$GPRMC,015558.598,A,4355.369,N,07926.758,W,001.9,318.5,090623,000.0,W*62
$GPGGA,015559.598,4355.369,N,07926.758,W,1,12,1.0,0.0,M,0.0,M,,*7E
$GPGSA,A,3,01,02,03,04,05,06,07,08,09,10,11,12,1.0,1.0,1.0*30
$GPRMC,015559.598,A,4355.369,N,07926.758,W,001.9,318.5,090623,000.0,W*63
$GPGGA,015600.598,4355.370,N,07926.759,W,1,12,1.0,0.0,M,0.0,M,,*78
$GPGSA,A,3,01,02,03,04,05,06,07,08,09,10,11,12,1.0,1.0,1.0*30
$GPRMC,015600.598,A,4355.370,N,07926.759,W,001.9,318.5,090623,000.0,W*65
$GPGGA,015601.598,4355.370,N,07926.759,W,1,12,1.0,0.0,M,0.0,M,,*79
$GPGSA,A,3,01,02,03,04,05,06,07,08,09,10,11,12,1.0,1.0,1.0*30
$GPRMC,015601.598,A,4355.370,N,07926.759,W,001.9,318.5,090623,000.0,W*64
$GPGGA,015602.598,4355.371,N,07926.760,W,1,12,1.0,0.0,M,0.0,M,,*71
$GPGSA,A,3,01,02,03,04,05,06,07,08,09,10,11,12,1.0,1.0,1.0*30
$GPRMC,015602.598,A,4355.371,N,07926.760,W,001.9,318.5,090623,000.0,W*6C
$GPGGA,015603.598,4355.371,N,07926.760,W,1,12,1.0,0.0,M,0.0,M,,*70
$GPGSA,A,3,01,02,03,04,05,06,07,08,09,10,11,12,1.0,1.0,1.0*30
$GPRMC,015603.598,A,4355.371,N,07926.760,W,001.9,318.5,090623,000.0,W*6D
$GPGGA,015604.598,4355.371,N,07926.760,W,1,12,1.0,0.0,M,0.0,M,,*77
$GPGSA,A,3,01,02,03,04,05,06,07,08,09,10,11,12,1.0,1.0,1.0*30
$GPRMC,015604.598,A,4355.371,N,07926.760,W,001.9,318.5,090623,000.0,W*6A
$GPGGA,015605.598,4355.372,N,07926.761,W,1,12,1.0,0.0,M,0.0,M,,*74
$GPGSA,A,3,01,02,03,04,05,06,07,08,09,10,11,12,1.0,1.0,1.0*30
$GPRMC,015605.598,A,4355.372,N,07926.761,W,001.9,318.5,090623,000.0,W*69
$GPGGA,015606.598,4355.372,N,07926.761,W,1,12,1.0,0.0,M,0.0,M,,*77
$GPGSA,A,3,01,02,03,04,05,06,07,08,09,10,11,12,1.0,1.0,1.0*30
$GPRMC,015606.598,A,4355.372,N,07926.761,W,001.9,318.5,090623,000.0,W*6A
$GPGGA,015607.598,4355.373,N,07926.762,W,1,12,1.0,0.0,M,0.0,M,,*74
$GPGSA,A,3,01,02,03,04,05,06,07,08,09,10,11,12,1.0,1.0,1.0*30
$GPRMC,015607.598,A,4355.373,N,07926.762,W,001.9,318.5,090623,000.0,W*69
$GPGGA,015608.598,4355.373,N,07926.762,W,1,12,1.0,0.0,M,0.0,M,,*7B
$GPGSA,A,3,01,02,03,04,05,06,07,08,09,10,11,12,1.0,1.0,1.0*30
$GPRMC,015608.598,A,4355.373,N,07926.762,W,001.9,318.5,090623,000.0,W*66
$GPGGA,015609.598,4355.374,N,07926.762,W,1,12,1.0,0.0,M,0.0,M,,*7D
$GPGSA,A,3,01,02,03,04,05,06,07,08,09,10,11,12,1.0,1.0,1.0*30
$GPRMC,015609.598,A,4355.374,N,07926.762,W,001.9,318.5,090623,000.0,W*60
$GPGGA,015610.598,4355.374,N,07926.763,W,1,12,1.0,0.0,M,0.0,M,,*74
$GPGSA,A,3,01,02,03,04,05,06,07,08,09,10,11,12,1.0,1.0,1.0*30
$GPRMC,015610.598,A,4355.374,N,07926.763,W,001.9,318.5,090623,000.0,W*69
$GPGGA,015611.598,4355.375,N,07926.763,W,1,12,1.0,0.0,M,0.0,M,,*74
$GPGSA,A,3,01,02,03,04,05,06,07,08,09,10,11,12,1.0,1.0,1.0*30
$GPRMC,015611.598,A,4355.375,N,07926.763,W,001.9,318.5,090623,000.0,W*69
$GPGGA,015612.598,4355.375,N,07926.764,W,1,12,1.0,0.0,M,0.0,M,,*70
$GPGSA,A,3,01,02,03,04,05,06,07,08,09,10,11,12,1.0,1.0,1.0*30
$GPRMC,015612.598,A,4355.375,N,07926.764,W,001.9,318.5,090623,000.0,W*6D
$GPGGA,015613.598,4355.376,N,07926.764,W,1,12,1.0,0.0,M,0.0,M,,*72
$GPGSA,A,3,01,02,03,04,05,06,07,08,09,10,11,12,1.0,1.0,1.0*30
$GPRMC,015613.598,A,4355.376,N,07926.764,W,001.9,318.5,090623,000.0,W*6F
$GPGGA,015614.598,4355.376,N,07926.764,W,1,12,1.0,0.0,M,0.0,M,,*75
$GPGSA,A,3,01,02,03,04,05,06,07,08,09,10,11,12,1.0,1.0,1.0*30
$GPRMC,015614.598,A,4355.376,N,07926.764,W,001.9,318.5,090623,000.0,W*68
$GPGGA,015615.598,4355.376,N,07926.765,W,1,12,1.0,0.0,M,0.0,M,,*75
$GPGSA,A,3,01,02,03,04,05,06,07,08,09,10,11,12,1.0,1.0,1.0*30
$GPRMC,015615.598,A,4355.376,N,07926.765,W,001.9,318.5,090623,000.0,W*68
